[{"address":"臺北市萬華區和平西路三段120號(行政中心)","startTime":1030,"endTime":1045,"lat":25.035029,"lon":121.499869,"garbageDay":[1,2,4,5,6],"recycleDay":[2,4,6]},{"address":"臺北市萬華區桂林路41號","startTime":1055,"endTime":1058,"lat":25.038115,"lon":121.504414,"garbageDay":[1,2,4,5,6],"recycleDay":[2,4,6]},{"address":"臺北市萬華區桂林路101號","startTime":1060,"endTime":1063,"lat":25.038636,"lon":121.501192,"garbageDay":[1,2,4,5,6],"recycleDay":[2,4,6]},{"address":"臺北市萬華區桂林路137號前","startTime":1065,"endTime":1069,"lat":25.038696,"lon":121.499349,"garbageDay":[1,2,4,5,6],"recycleDay":[2,4,6]},{"address":"臺北市萬華區環河南路二段48號前","startTime":1076,"endTime":1078,"lat":25.038299,"lon":121.496727,"garbageDay":[1,2,4,5,6],"recycleDay":[2,4,6]},{"address":"臺北市萬華區環河南路二段52號前","startTime":1079,"endTime":1083,"lat":25.037808,"lon":121.496215,"garbageDay":[1,2,4,5,6],"recycleDay":[2,4,6]},{"address":"臺北市萬華區環河南路二段102號前","startTime":1083,"endTime":1090,"lat":25.036934,"lon":121.495458,"garbageDay":[1,2,4,5,6],"recycleDay":[2,4,6]},{"address":"臺北市萬華區環河南路二段132號前","startTime":1090,"endTime":1096,"lat":25.03619,"lon":121.494852,"garbageDay":[1,2,4,5,6],"recycleDay":[2,4,6]},{"address":"臺北市萬華區和平西路三段261號之7","startTime":1097,"endTime":1103,"lat":25.035805,"lon":121.494417,"garbageDay":[1,2,4,5,6],"recycleDay":[2,4,6]},{"address":"臺北市萬華區和平西路三段359號前","startTime":1104,"endTime":1107,"lat":25.035676,"lon":121.491909,"garbageDay":[1,2,4,5,6],"recycleDay":[2,4,6]},{"address":"臺北市萬華區桂林路246巷42弄33號","startTime":1108,"endTime":1111,"lat":25.036405,"lon":121.492,"garbageDay":[1,2,4,5,6],"recycleDay":[2,4,6]},{"address":"臺北市萬華區桂林路246巷42弄44號","startTime":1111,"endTime":1115,"lat":25.036102,"lon":121.492316,"garbageDay":[1,2,4,5,6],"recycleDay":[2,4,6]},{"address":"臺北市萬華區桂林路246巷16號","startTime":1115,"endTime":1119,"lat":25.037276,"lon":121.493532,"garbageDay":[1,2,4,5,6],"recycleDay":[2,4,6]},{"address":"臺北市萬華區桂林路244巷26號","startTime":1119,"endTime":1121,"lat":25.037702,"lon":121.494413,"garbageDay":[1,2,4,5,6],"recycleDay":[2,4,6]},{"address":"臺北市萬華區桂林路242巷4號","startTime":1122,"endTime":1126,"lat":25.038212,"lon":121.49544,"garbageDay":[1,2,4,5,6],"recycleDay":[2,4,6]},{"address":"臺北市萬華區西園路一段134號前","startTime":1230,"endTime":1235,"lat":25.03778726,"lon":121.4995817,"garbageDay":[1,2,4,5,6],"recycleDay":[2,4,6]},{"address":"臺北市萬華區西園路一段158號前","startTime":1235,"endTime":1238,"lat":25.037124,"lon":121.499302,"garbageDay":[1,2,4,5,6],"recycleDay":[2,4,6]},{"address":"臺北市萬華區西園路一段192號","startTime":1238,"endTime":1243,"lat":25.036189,"lon":121.499163,"garbageDay":[1,2,4,5,6],"recycleDay":[2,4,6]},{"address":"臺北市萬華區西園路一段216號前","startTime":1243,"endTime":1245,"lat":25.035545,"lon":121.499244,"garbageDay":[1,2,4,5,6],"recycleDay":[2,4,6]},{"address":"臺北市萬華區桂林路38號前","startTime":1250,"endTime":1255,"lat":25.037804,"lon":121.504732,"garbageDay":[1,2,4,5,6],"recycleDay":[2,4,6]},{"address":"臺北市萬華區中華路一段212號前","startTime":1256,"endTime":1260,"lat":25.037403,"lon":121.506401,"garbageDay":[1,2,4,5,6],"recycleDay":[2,4,6]},{"address":"臺北市萬華區廣州街79號前","startTime":1263,"endTime":1268,"lat":25.036641,"lon":121.504284,"garbageDay":[1,2,4,5,6],"recycleDay":[2,4,6]},{"address":"臺北市萬華區昆明街285號前","startTime":1269,"endTime":1272,"lat":25.036787,"lon":121.503713,"garbageDay":[1,2,4,5,6],"recycleDay":[2,4,6]},{"address":"臺北市萬華區廣州街90號對面","startTime":1272,"endTime":1276,"lat":25.036594,"lon":121.502568,"garbageDay":[1,2,4,5,6],"recycleDay":[2,4,6]},{"address":"臺北市萬華區廣州街116號對面","startTime":1276,"endTime":1279,"lat":25.036596,"lon":121.501866,"garbageDay":[1,2,4,5,6],"recycleDay":[2,4,6]},{"address":"臺北市萬華區廣州街207號前","startTime":1282,"endTime":1287,"lat":25.036741,"lon":121.500259,"garbageDay":[1,2,4,5,6],"recycleDay":[2,4,6]},{"address":"臺北市萬華區環河南路二段73號前","startTime":1292,"endTime":1295,"lat":25.037598,"lon":121.496525,"garbageDay":[1,2,4,5,6],"recycleDay":[2,4,6]},{"address":"臺北市萬華區桂林路164號前","startTime":1296,"endTime":1304,"lat":25.038439,"lon":121.497552,"garbageDay":[1,2,4,5,6],"recycleDay":[2,4,6]},{"address":"臺北市萬華區桂林路142號前","startTime":1304,"endTime":1310,"lat":25.03844975,"lon":121.498322,"garbageDay":[1,2,4,5,6],"recycleDay":[2,4,6]},{"address":"臺北市萬華區環河南路二段278號前","startTime":990,"endTime":995,"lat":25.03207504,"lon":121.4913107,"garbageDay":[1,2,4,5,6],"recycleDay":[2,4,6]},{"address":"臺北市萬華區長順街91號","startTime":996,"endTime":1001,"lat":25.031742,"lon":121.490245,"garbageDay":[1,2,4,5,6],"recycleDay":[2,4,6]},{"address":"臺北市萬華區長順街111號","startTime":1002,"endTime":1007,"lat":25.032199,"lon":121.489301,"garbageDay":[1,2,4,5,6],"recycleDay":[2,4,6]},{"address":"臺北市萬華區和平西路三段380號前","startTime":1009,"endTime":1014,"lat":25.035383,"lon":121.491316,"garbageDay":[1,2,4,5,6],"recycleDay":[2,4,6]},{"address":"臺北市萬華區環河南路二段162號前","startTime":1015,"endTime":1019,"lat":25.035325,"lon":121.493901,"garbageDay":[1,2,4,5,6],"recycleDay":[2,4,6]},{"address":"臺北市萬華區環河南路二段218號前","startTime":1020,"endTime":1024,"lat":25.033797,"lon":121.49289,"garbageDay":[1,2,4,5,6],"recycleDay":[2,4,6]},{"address":"臺北市萬華區長順街131號","startTime":1025,"endTime":1027,"lat":25.0323589,"lon":121.4889039,"garbageDay":[1,2,4,5,6],"recycleDay":[2,4,6]},{"address":"臺北市萬華區艋舺大道338號","startTime":1112,"endTime":1114,"lat":25.03260548,"lon":121.4959879,"garbageDay":[1,2,4,5,6],"recycleDay":[2,4,6]},{"address":"臺北市萬華區西園路二段33號","startTime":1116,"endTime":1119,"lat":25.031911,"lon":121.497631,"garbageDay":[1,2,4,5,6],"recycleDay":[2,4,6]},{"address":"臺北市萬華區艋舺大道204號","startTime":1120,"endTime":1123,"lat":25.032642,"lon":121.499403,"garbageDay":[1,2,4,5,6],"recycleDay":[2,4,6]},{"address":"臺北市萬華區環河南路二段250巷52號","startTime":1128,"endTime":1131,"lat":25.034006,"lon":121.49038,"garbageDay":[1,2,4,5,6],"recycleDay":[2,4,6]},{"address":"臺北市萬華區和平西路三段382巷12弄54號","startTime":1132,"endTime":1135,"lat":25.034583,"lon":121.490169,"garbageDay":[1,2,4,5,6],"recycleDay":[2,4,6]},{"address":"臺北市萬華區和平西路三段300-9號前","startTime":1136,"endTime":1140,"lat":25.0353536,"lon":121.4932752,"garbageDay":[1,2,4,5,6],"recycleDay":[2,4,6]},{"address":"臺北市萬華區雙園街21號","startTime":1144,"endTime":1150,"lat":25.029432,"lon":121.494649,"garbageDay":[1,2,4,5,6],"recycleDay":[2,4,6]},{"address":"臺北市萬華區雙園街69號","startTime":1151,"endTime":1156,"lat":25.030275,"lon":121.493783,"garbageDay":[1,2,4,5,6],"recycleDay":[2,4,6]},{"address":"臺北市萬華區長順街35號","startTime":1157,"endTime":1160,"lat":25.030593,"lon":121.493077,"garbageDay":[1,2,4,5,6],"recycleDay":[2,4,6]},{"address":"臺北市萬華區長順街65號","startTime":1161,"endTime":1163,"lat":25.03114,"lon":121.491219,"garbageDay":[1,2,4,5,6],"recycleDay":[2,4,6]},{"address":"臺北市萬華區大理街170巷66號","startTime":1165,"endTime":1170,"lat":25.032498,"lon":121.492691,"garbageDay":[1,2,4,5,6],"recycleDay":[2,4,6]},{"address":"臺北市萬華區大理街170巷12號","startTime":1171,"endTime":1176,"lat":25.033473,"lon":121.493517,"garbageDay":[1,2,4,5,6],"recycleDay":[2,4,6]},{"address":"臺北市萬華區環河南路二段250巷1號","startTime":1177,"endTime":1182,"lat":25.03336606,"lon":121.4914959,"garbageDay":[1,2,4,5,6],"recycleDay":[2,4,6]},{"address":"臺北市萬華區環河南路二段250巷33弄3號","startTime":1183,"endTime":1186,"lat":25.033736,"lon":121.489702,"garbageDay":[1,2,4,5,6],"recycleDay":[2,4,6]},{"address":"臺北市萬華區和平西路三段200號","startTime":1190,"endTime":1193,"lat":25.035261,"lon":121.497087,"garbageDay":[1,2,4,5,6],"recycleDay":[2,4,6]},{"address":"臺北市萬華區雙園街116號","startTime":1271,"endTime":1274,"lat":25.031556,"lon":121.492177,"garbageDay":[1,2,4,5,6],"recycleDay":[2,4,6]},{"address":"臺北市萬華區環河南路二段161號","startTime":1275,"endTime":1279,"lat":25.033387,"lon":121.492683,"garbageDay":[1,2,4,5,6],"recycleDay":[2,4,6]},{"address":"臺北市萬華區環河南路二段125巷1號","startTime":1280,"endTime":1283,"lat":25.034349,"lon":121.493577,"garbageDay":[1,2,4,5,6],"recycleDay":[2,4,6]},{"address":"臺北市萬華區和平西路三段292號前","startTime":1284,"endTime":1287,"lat":25.035222,"lon":121.494634,"garbageDay":[1,2,4,5,6],"recycleDay":[2,4,6]},{"address":"臺北市萬華區和平西路三段258號前","startTime":1288,"endTime":1292,"lat":25.03527,"lon":121.495809,"garbageDay":[1,2,4,5,6],"recycleDay":[2,4,6]},{"address":"臺北市萬華區和平西路三段194號前","startTime":1293,"endTime":1297,"lat":25.035264,"lon":121.497226,"garbageDay":[1,2,4,5,6],"recycleDay":[2,4,6]},{"address":"臺北市萬華區大理街89號","startTime":1298,"endTime":1301,"lat":25.034426,"lon":121.4984885,"garbageDay":[1,2,4,5,6],"recycleDay":[2,4,6]},{"address":"臺北市萬華區大理街131號","startTime":1302,"endTime":1305,"lat":25.0343,"lon":121.497407,"garbageDay":[1,2,4,5,6],"recycleDay":[2,4,6]},{"address":"臺北市萬華區大理街132號","startTime":1306,"endTime":1309,"lat":25.03410565,"lon":121.4964597,"garbageDay":[1,2,4,5,6],"recycleDay":[2,4,6]},{"address":"臺北市萬華區大理街173號","startTime":1310,"endTime":1313,"lat":25.033844,"lon":121.494645,"garbageDay":[1,2,4,5,6],"recycleDay":[2,4,6]},{"address":"臺北市萬華區大理街160巷22弄2號","startTime":1314,"endTime":1317,"lat":25.032784,"lon":121.493912,"garbageDay":[1,2,4,5,6],"recycleDay":[2,4,6]},{"address":"臺北市萬華區大理街160巷26弄2號","startTime":1318,"endTime":1321,"lat":25.031953,"lon":121.493885,"garbageDay":[1,2,4,5,6],"recycleDay":[2,4,6]},{"address":"臺北市萬華區西園路二段140巷52號","startTime":1322,"endTime":1325,"lat":25.031538,"lon":121.494908,"garbageDay":[1,2,4,5,6],"recycleDay":[2,4,6]},{"address":"臺北市萬華區西園路二段96巷24號","startTime":1326,"endTime":1330,"lat":25.0311,"lon":121.495807,"garbageDay":[1,2,4,5,6],"recycleDay":[2,4,6]},{"address":"臺北市萬華區萬大路489號","startTime":990,"endTime":995,"lat":25.02016071,"lon":121.4978488,"garbageDay":[1,2,4,5,6],"recycleDay":[2,4,6]},{"address":"臺北市萬華區萬大路447號","startTime":996,"endTime":1000,"lat":25.020935,"lon":121.498469,"garbageDay":[1,2,4,5,6],"recycleDay":[2,4,6]},{"address":"臺北市萬華區萬大路327號","startTime":1001,"endTime":1005,"lat":25.0242276,"lon":121.5002337,"garbageDay":[1,2,4,5,6],"recycleDay":[2,4,6]},{"address":"臺北市萬華區萬大路281號","startTime":1006,"endTime":1010,"lat":25.025275,"lon":121.500631,"garbageDay":[1,2,4,5,6],"recycleDay":[2,4,6]},{"address":"臺北市萬華區萬大路277巷14弄1號","startTime":1011,"endTime":1015,"lat":25.025357,"lon":121.501122,"garbageDay":[1,2,4,5,6],"recycleDay":[2,4,6]},{"address":"臺北市萬華區萬大路277巷33弄2號","startTime":1016,"endTime":1020,"lat":25.02543,"lon":121.501785,"garbageDay":[1,2,4,5,6],"recycleDay":[2,4,6]},{"address":"臺北市萬華區萬大路277巷46號","startTime":1021,"endTime":1025,"lat":25.025243,"lon":121.502573,"garbageDay":[1,2,4,5,6],"recycleDay":[2,4,6]},{"address":"臺北市萬華區西藏路125巷20號","startTime":1028,"endTime":1034,"lat":25.02763964,"lon":121.5031925,"garbageDay":[1,2,4,5,6],"recycleDay":[2,4,6]},{"address":"臺北市萬華區中華路二段364巷15號","startTime":1035,"endTime":1040,"lat":25.028619,"lon":121.504063,"garbageDay":[1,2,4,5,6],"recycleDay":[2,4,6]},{"address":"臺北市萬華區中華路二段384號","startTime":1041,"endTime":1045,"lat":25.028633,"lon":121.505167,"garbageDay":[1,2,4,5,6],"recycleDay":[2,4,6]},{"address":"臺北市萬華區中華路二段430號","startTime":1046,"endTime":1050,"lat":25.02746419,"lon":121.5063437,"garbageDay":[1,2,4,5,6],"recycleDay":[2,4,6]},{"address":"臺北市萬華區國興路46號","startTime":1150,"endTime":1160,"lat":25.02507186,"lon":121.5074432,"garbageDay":[1,2,4,5,6],"recycleDay":[2,4,6]},{"address":"臺北市萬華區國興路86號","startTime":1161,"endTime":1170,"lat":25.026765,"lon":121.506068,"garbageDay":[1,2,4,5,6],"recycleDay":[2,4,6]},{"address":"臺北市萬華區西藏路125巷31號","startTime":1172,"endTime":1177,"lat":25.026533,"lon":121.503071,"garbageDay":[1,2,4,5,6],"recycleDay":[2,4,6]},{"address":"臺北市萬華區青年路54號","startTime":1178,"endTime":1182,"lat":25.02513529,"lon":121.503222,"garbageDay":[1,2,4,5,6],"recycleDay":[2,4,6]},{"address":"臺北市萬華區青年路58號","startTime":1182,"endTime":1187,"lat":25.024621,"lon":121.50281,"garbageDay":[1,2,4,5,6],"recycleDay":[2,4,6]},{"address":"臺北市萬華區萬青街168號","startTime":1188,"endTime":1193,"lat":25.02351,"lon":121.50154,"garbageDay":[1,2,4,5,6],"recycleDay":[2,4,6]},{"address":"臺北市萬華區萬大路423巷61號","startTime":1195,"endTime":1200,"lat":25.02150805,"lon":121.500836,"garbageDay":[1,2,4,5,6],"recycleDay":[2,4,6]},{"address":"臺北市萬華區國興路1巷13號","startTime":1280,"endTime":1290,"lat":25.02345556,"lon":121.5084599,"garbageDay":[1,2,4,5,6],"recycleDay":[2,4,6]},{"address":"臺北市萬華區青年路18號","startTime":1291,"endTime":1295,"lat":25.026006,"lon":121.50572,"garbageDay":[1,2,4,5,6],"recycleDay":[2,4,6]},{"address":"臺北市萬華區青年路32號","startTime":1296,"endTime":1305,"lat":25.025649,"lon":121.504592,"garbageDay":[1,2,4,5,6],"recycleDay":[2,4,6]},{"address":"臺北市萬華區中華路二段496號","startTime":1308,"endTime":1315,"lat":25.026306,"lon":121.507433,"garbageDay":[1,2,4,5,6],"recycleDay":[2,4,6]},{"address":"臺北市萬華區中華路二段522號","startTime":1316,"endTime":1320,"lat":25.02545,"lon":121.508288,"garbageDay":[1,2,4,5,6],"recycleDay":[2,4,6]},{"address":"臺北市萬華區中華路二段598號","startTime":1321,"endTime":1330,"lat":25.02480582,"lon":121.5094118,"garbageDay":[1,2,4,5,6],"recycleDay":[2,4,6]},{"address":"臺北市萬華區西寧南路7號","startTime":990,"endTime":993,"lat":25.048331,"lon":121.507523,"garbageDay":[1,2,4,5,6],"recycleDay":[2,4,6]},{"address":"臺北市萬華區洛陽街33號","startTime":995,"endTime":1000,"lat":25.047407,"lon":121.508434,"garbageDay":[1,2,4,5,6],"recycleDay":[2,4,6]},{"address":"臺北市萬華區開封街二段二號","startTime":1002,"endTime":1007,"lat":25.046072,"lon":121.508895,"garbageDay":[1,2,4,5,6],"recycleDay":[2,4,6]},{"address":"臺北市萬華區開封街二段36號","startTime":1008,"endTime":1013,"lat":25.046293,"lon":121.507861,"garbageDay":[1,2,4,5,6],"recycleDay":[2,4,6]},{"address":"臺北市萬華區開封街二段63號對面","startTime":1014,"endTime":1025,"lat":25.047097,"lon":121.505306,"garbageDay":[1,2,4,5,6],"recycleDay":[2,4,6]},{"address":"臺北市萬華區環河南路一段224號","startTime":1026,"endTime":1029,"lat":25.0464,"lon":121.503288,"garbageDay":[1,2,4,5,6],"recycleDay":[2,4,6]},{"address":"臺北市萬華區康定路14號","startTime":1031,"endTime":1035,"lat":25.045504,"lon":121.5030905,"garbageDay":[1,2,4,5,6],"recycleDay":[2,4,6]},{"address":"臺北市萬華區康定路28號","startTime":1036,"endTime":1042,"lat":25.04424,"lon":121.502648,"garbageDay":[1,2,4,5,6],"recycleDay":[2,4,6]},{"address":"臺北市萬華區康定路56號","startTime":1043,"endTime":1050,"lat":25.042755,"lon":121.501506,"garbageDay":[1,2,4,5,6],"recycleDay":[2,4,6]},{"address":"臺北市萬華區康定路188號","startTime":1052,"endTime":1057,"lat":25.038958,"lon":121.501839,"garbageDay":[1,2,4,5,6],"recycleDay":[2,4,6]},{"address":"臺北市萬華區環河南路一段81號","startTime":1135,"endTime":1138,"lat":25.044168,"lon":121.501106,"garbageDay":[1,2,4,5,6],"recycleDay":[2,4,6]},{"address":"臺北市萬華區環河南路一段71號前","startTime":1139,"endTime":1143,"lat":25.045047,"lon":121.501971,"garbageDay":[1,2,4,5,6],"recycleDay":[2,4,6]},{"address":"臺北市萬華區漢口街二段90號","startTime":1145,"endTime":1150,"lat":25.046165,"lon":121.504367,"garbageDay":[1,2,4,5,6],"recycleDay":[2,4,6]},{"address":"臺北市萬華區昆明街34號對面","startTime":1153,"endTime":1156,"lat":25.04702299,"lon":121.5060094,"garbageDay":[1,2,4,5,6],"recycleDay":[2,4,6]},{"address":"臺北市萬華區昆明街1號","startTime":1157,"endTime":1167,"lat":25.04821033,"lon":121.5063605,"garbageDay":[1,2,4,5,6],"recycleDay":[2,4,6]},{"address":"臺北市萬華區西寧南路71巷口","startTime":1170,"endTime":1175,"lat":25.0459901,"lon":121.5075012,"garbageDay":[1,2,4,5,6],"recycleDay":[2,4,6]},{"address":"臺北市萬華區西寧南路119號","startTime":1176,"endTime":1181,"lat":25.04492505,"lon":121.5065963,"garbageDay":[1,2,4,5,6],"recycleDay":[2,4,6]},{"address":"臺北市萬華區西寧南路151號","startTime":1182,"endTime":1186,"lat":25.043822,"lon":121.506374,"garbageDay":[1,2,4,5,6],"recycleDay":[2,4,6]},{"address":"臺北市萬華區漢口街二段54號對面","startTime":1260,"endTime":1265,"lat":25.04594316,"lon":121.5058584,"garbageDay":[1,2,4,5,6],"recycleDay":[2,4,6]},{"address":"臺北市萬華區漢口街二段17號","startTime":1266,"endTime":1271,"lat":25.0454719,"lon":121.508095,"garbageDay":[1,2,4,5,6],"recycleDay":[2,4,6]},{"address":"臺北市萬華區中華路一段100號","startTime":1273,"endTime":1278,"lat":25.044165,"lon":121.508444,"garbageDay":[1,2,4,5,6],"recycleDay":[2,4,6]},{"address":"臺北市萬華區成都路27號","startTime":1282,"endTime":1290,"lat":25.042578,"lon":121.507059,"garbageDay":[1,2,4,5,6],"recycleDay":[2,4,6]},{"address":"臺北市萬華區成都路75號前","startTime":1292,"endTime":1298,"lat":25.042974,"lon":121.505526,"garbageDay":[1,2,4,5,6],"recycleDay":[2,4,6]},{"address":"臺北市萬華區峨嵋街115號","startTime":1301,"endTime":1306,"lat":25.044442,"lon":121.503676,"garbageDay":[1,2,4,5,6],"recycleDay":[2,4,6]},{"address":"臺北市萬華區昆明街100號對面","startTime":1307,"endTime":1312,"lat":25.0443235,"lon":121.5049198,"garbageDay":[1,2,4,5,6],"recycleDay":[2,4,6]},{"address":"臺北市萬華區昆明街90號","startTime":1313,"endTime":1318,"lat":25.04519871,"lon":121.5053993,"garbageDay":[1,2,4,5,6],"recycleDay":[2,4,6]},{"address":"臺北市萬華區西寧南路84號","startTime":960,"endTime":965,"lat":25.042309,"lon":121.505834,"garbageDay":[1,2,4,5,6],"recycleDay":[2,4,6]},{"address":"臺北市萬華區西寧南路146號","startTime":968,"endTime":975,"lat":25.040425,"lon":121.50597,"garbageDay":[1,2,4,5,6],"recycleDay":[2,4,6]},{"address":"臺北市萬華區西寧南路186號","startTime":978,"endTime":982,"lat":25.039327,"lon":121.506105,"garbageDay":[1,2,4,5,6],"recycleDay":[2,4,6]},{"address":"臺北市萬華區西寧南路198號前","startTime":985,"endTime":990,"lat":25.038719,"lon":121.506204,"garbageDay":[1,2,4,5,6],"recycleDay":[2,4,6]},{"address":"臺北市萬華區內江街67號前","startTime":995,"endTime":1000,"lat":25.041645,"lon":121.504845,"garbageDay":[1,2,4,5,6],"recycleDay":[2,4,6]},{"address":"臺北市萬華區漢中街145號","startTime":1002,"endTime":1010,"lat":25.041686,"lon":121.507246,"garbageDay":[1,2,4,5,6],"recycleDay":[2,4,6]},{"address":"臺北市萬華區艋舺大道71號前","startTime":1100,"endTime":1104,"lat":25.033774,"lon":121.503477,"garbageDay":[1,2,4,5,6],"recycleDay":[2,4,6]},{"address":"臺北市萬華區康定路275號","startTime":1106,"endTime":1108,"lat":25.034348,"lon":121.501247,"garbageDay":[1,2,4,5,6],"recycleDay":[2,4,6]},{"address":"臺北市萬華區和平西路三段86號","startTime":1109,"endTime":1113,"lat":25.035095,"lon":121.502071,"garbageDay":[1,2,4,5,6],"recycleDay":[2,4,6]},{"address":"臺北市萬華區和平西路三段64號前","startTime":1113,"endTime":1117,"lat":25.034979,"lon":121.503212,"garbageDay":[1,2,4,5,6],"recycleDay":[2,4,6]},{"address":"臺北市萬華區和平西路三段30巷","startTime":1115,"endTime":1117,"lat":25.034313,"lon":121.504095,"garbageDay":[1,2,4,5,6],"recycleDay":[2,4,6]},{"address":"臺北市萬華區和平西路三段15號前","startTime":1117,"endTime":1121,"lat":25.034599,"lon":121.504186,"garbageDay":[1,2,4,5,6],"recycleDay":[2,4,6]},{"address":"臺北市萬華區三水街47號前","startTime":1122,"endTime":1126,"lat":25.035562,"lon":121.504021,"garbageDay":[1,2,4,5,6],"recycleDay":[2,4,6]},{"address":"臺北市萬華區南寧路41號之2前","startTime":1127,"endTime":1131,"lat":25.036081,"lon":121.504088,"garbageDay":[1,2,4,5,6],"recycleDay":[2,4,6]},{"address":"臺北市萬華區昆明街322號前","startTime":1132,"endTime":1134,"lat":25.035344,"lon":121.503201,"garbageDay":[1,2,4,5,6],"recycleDay":[2,4,6]},{"address":"臺北市萬華區和平西路三段57號","startTime":1134,"endTime":1136,"lat":25.035346,"lon":121.502329,"garbageDay":[1,2,4,5,6],"recycleDay":[2,4,6]},{"address":"臺北市萬華區康定路221號前","startTime":1137,"endTime":1142,"lat":25.035604,"lon":121.501474,"garbageDay":[1,2,4,5,6],"recycleDay":[2,4,6]},{"address":"臺北市萬華區昆明街255號前","startTime":1145,"endTime":1149,"lat":25.037509,"lon":121.503866,"garbageDay":[1,2,4,5,6],"recycleDay":[2,4,6]},{"address":"臺北市萬華區柳州街82號前","startTime":1150,"endTime":1154,"lat":25.037126,"lon":121.504932,"garbageDay":[1,2,4,5,6],"recycleDay":[2,4,6]},{"address":"臺北市萬華區廣州街32號前","startTime":1155,"endTime":1158,"lat":25.036447,"lon":121.504411,"garbageDay":[1,2,4,5,6],"recycleDay":[2,4,6]},{"address":"臺北市萬華區中華路二段10號前","startTime":1160,"endTime":1162,"lat":25.033898,"lon":121.505439,"garbageDay":[1,2,4,5,6],"recycleDay":[2,4,6]},{"address":"臺北市萬華區康定路360號前","startTime":1240,"endTime":1244,"lat":25.034452,"lon":121.500963,"garbageDay":[1,2,4,5,6],"recycleDay":[2,4,6]},{"address":"臺北市萬華區大理街34號之9","startTime":1245,"endTime":1246,"lat":25.03449,"lon":121.50063,"garbageDay":[1,2,4,5,6],"recycleDay":[2,4,6]},{"address":"臺北市萬華區大理街42號之6前","startTime":1247,"endTime":1248,"lat":25.034476,"lon":121.499925,"garbageDay":[1,2,4,5,6],"recycleDay":[2,4,6]},{"address":"臺北市萬華區西園路一段282巷25號前","startTime":1249,"endTime":1252,"lat":25.033774,"lon":121.498686,"garbageDay":[1,2,4,5,6],"recycleDay":[2,4,6]},{"address":"臺北市萬華區大理街58號前","startTime":1252,"endTime":1255,"lat":25.034242,"lon":121.49899,"garbageDay":[1,2,4,5,6],"recycleDay":[2,4,6]},{"address":"臺北市萬華區西園路一段139號前","startTime":1257,"endTime":1259,"lat":25.037572,"lon":121.499721,"garbageDay":[1,2,4,5,6],"recycleDay":[2,4,6]},{"address":"臺北市萬華區桂林路90號(西昌街口)","startTime":1260,"endTime":1265,"lat":25.038333,"lon":121.500353,"garbageDay":[1,2,4,5,6],"recycleDay":[2,4,6]},{"address":"臺北市萬華區康定路248號","startTime":1266,"endTime":1270,"lat":25.037594,"lon":121.501536,"garbageDay":[1,2,4,5,6],"recycleDay":[2,4,6]},{"address":"臺北市萬華區康定路280號","startTime":1271,"endTime":1276,"lat":25.036943,"lon":121.501384,"garbageDay":[1,2,4,5,6],"recycleDay":[2,4,6]},{"address":"臺北市萬華區康定路338號前","startTime":1280,"endTime":1283,"lat":25.035429,"lon":121.5011,"garbageDay":[1,2,4,5,6],"recycleDay":[2,4,6]},{"address":"臺北市萬華區和平西路三段89巷","startTime":1283,"endTime":1285,"lat":25.035306,"lon":121.501,"garbageDay":[1,2,4,5,6],"recycleDay":[2,4,6]},{"address":"臺北市萬華區和平西路三段107號","startTime":1284,"endTime":1287,"lat":25.035388,"lon":121.500497,"garbageDay":[1,2,4,5,6],"recycleDay":[2,4,6]},{"address":"臺北市萬華區和平西路三段157號","startTime":1290,"endTime":1295,"lat":25.035482,"lon":121.498517,"garbageDay":[1,2,4,5,6],"recycleDay":[2,4,6]},{"address":"臺北市萬華區和平西路三段187號","startTime":1295,"endTime":1300,"lat":25.03549,"lon":121.497793,"garbageDay":[1,2,4,5,6],"recycleDay":[2,4,6]},{"address":"臺北市萬華區和平西路三段與211號前","startTime":1300,"endTime":1305,"lat":25.035505,"lon":121.496915,"garbageDay":[1,2,4,5,6],"recycleDay":[2,4,6]},{"address":"臺北市萬華區東園街122號前","startTime":1000,"endTime":1002,"lat":25.02393173,"lon":121.497317,"garbageDay":[1,2,4,5,6],"recycleDay":[2,4,6]},{"address":"臺北市萬華區東園街152號前(衛生所)","startTime":1003,"endTime":1006,"lat":25.02295,"lon":121.497823,"garbageDay":[1,2,4,5,6],"recycleDay":[2,4,6]},{"address":"臺北市萬華區東園街198號前(頂好超市)","startTime":1007,"endTime":1010,"lat":25.021568,"lon":121.498407,"garbageDay":[1,2,4,5,6],"recycleDay":[2,4,6]},{"address":"臺北市萬華區萬大路426號","startTime":1011,"endTime":1015,"lat":25.020935,"lon":121.498218,"garbageDay":[1,2,4,5,6],"recycleDay":[2,4,6]},{"address":"臺北市萬華區萬大路472號","startTime":1016,"endTime":1021,"lat":25.019911,"lon":121.497557,"garbageDay":[1,2,4,5,6],"recycleDay":[2,4,6]},{"address":"臺北市萬華區萬大路524號(郵局)","startTime":1022,"endTime":1026,"lat":25.01887,"lon":121.496784,"garbageDay":[1,2,4,5,6],"recycleDay":[2,4,6]},{"address":"臺北市萬華區萬大路614號","startTime":1027,"endTime":1032,"lat":25.01678,"lon":121.495511,"garbageDay":[1,2,4,5,6],"recycleDay":[2,4,6]},{"address":"臺北市萬華區環河南路三段345號(民本電臺)","startTime":1033,"endTime":1036,"lat":25.01743,"lon":121.494509,"garbageDay":[1,2,4,5,6],"recycleDay":[2,4,6]},{"address":"臺北市萬華區環河南路三段283號前","startTime":1037,"endTime":1041,"lat":25.018969,"lon":121.493501,"garbageDay":[1,2,4,5,6],"recycleDay":[2,4,6]},{"address":"臺北市萬華區環河南路三段243號前","startTime":1042,"endTime":1046,"lat":25.020365,"lon":121.49273,"garbageDay":[1,2,4,5,6],"recycleDay":[2,4,6]},{"address":"臺北市萬華區環河南路三段203號(巖清寺)","startTime":1047,"endTime":1050,"lat":25.021466,"lon":121.49221,"garbageDay":[1,2,4,5,6],"recycleDay":[2,4,6]},{"address":"臺北市萬華區環河南路三段123號前","startTime":1051,"endTime":1053,"lat":25.023988,"lon":121.491084,"garbageDay":[1,2,4,5,6],"recycleDay":[2,4,6]},{"address":"臺北市萬華區萬大路424巷159號","startTime":1140,"endTime":1143,"lat":25.020646,"lon":121.493869,"garbageDay":[1,2,4,5,6],"recycleDay":[2,4,6]},{"address":"臺北市萬華區萬大路424巷112-6號對面三角公園","startTime":1144,"endTime":1149,"lat":25.021019,"lon":121.49502,"garbageDay":[1,2,4,5,6],"recycleDay":[2,4,6]},{"address":"臺北市萬華區長泰街201號","startTime":1150,"endTime":1153,"lat":25.02178,"lon":121.495989,"garbageDay":[1,2,4,5,6],"recycleDay":[2,4,6]},{"address":"臺北市萬華區長泰街161號","startTime":1153,"endTime":1154,"lat":25.021972,"lon":121.496859,"garbageDay":[1,2,4,5,6],"recycleDay":[2,4,6]},{"address":"臺北市萬華區長泰街139巷2號之1前","startTime":1154,"endTime":1159,"lat":25.021731,"lon":121.497425,"garbageDay":[1,2,4,5,6],"recycleDay":[2,4,6]},{"address":"臺北市萬華區東園街65號(公路警察)","startTime":1160,"endTime":1163,"lat":25.026491,"lon":121.496203,"garbageDay":[1,2,4,5,6],"recycleDay":[2,4,6]},{"address":"臺北市萬華區東園街19號","startTime":1164,"endTime":1168,"lat":25.027489,"lon":121.495732,"garbageDay":[1,2,4,5,6],"recycleDay":[2,4,6]},{"address":"臺北市萬華區西藏路197號前","startTime":1170,"endTime":1173,"lat":25.029287,"lon":121.499793,"garbageDay":[1,2,4,5,6],"recycleDay":[2,4,6]},{"address":"臺北市萬華區萬大路156號前","startTime":1174,"endTime":1177,"lat":25.0286462,"lon":121.5003828,"garbageDay":[1,2,4,5,6],"recycleDay":[2,4,6]},{"address":"臺北市萬華區萬大路188號前","startTime":1178,"endTime":1182,"lat":25.02769949,"lon":121.5003904,"garbageDay":[1,2,4,5,6],"recycleDay":[2,4,6]},{"address":"臺北市萬華區萬大路220號前","startTime":1183,"endTime":1186,"lat":25.02695052,"lon":121.5003977,"garbageDay":[1,2,4,5,6],"recycleDay":[2,4,6]},{"address":"臺北市萬華區萬大路282號","startTime":1187,"endTime":1191,"lat":25.025521,"lon":121.500277,"garbageDay":[1,2,4,5,6],"recycleDay":[2,4,6]},{"address":"臺北市萬華區萬大路326號","startTime":1192,"endTime":1196,"lat":25.024179,"lon":121.50014,"garbageDay":[1,2,4,5,6],"recycleDay":[2,4,6]},{"address":"臺北市萬華區萬大路344巷22號前","startTime":1197,"endTime":1200,"lat":25.024026,"lon":121.498587,"garbageDay":[1,2,4,5,6],"recycleDay":[2,4,6]},{"address":"臺北市萬華區民和街50號前","startTime":1285,"endTime":1288,"lat":25.02586,"lon":121.498708,"garbageDay":[1,2,4,5,6],"recycleDay":[2,4,6]},{"address":"臺北市萬華區民和街104號","startTime":1289,"endTime":1292,"lat":25.025447,"lon":121.497444,"garbageDay":[1,2,4,5,6],"recycleDay":[2,4,6]},{"address":"臺北市萬華區德昌街152號(國際電台)","startTime":1293,"endTime":1297,"lat":25.024073,"lon":121.496166,"garbageDay":[1,2,4,5,6],"recycleDay":[2,4,6]},{"address":"臺北市萬華區德昌街198號","startTime":1298,"endTime":1302,"lat":25.023665,"lon":121.495054,"garbageDay":[1,2,4,5,6],"recycleDay":[2,4,6]},{"address":"臺北市萬華區德昌街230號前","startTime":1303,"endTime":1307,"lat":25.023588,"lon":121.494277,"garbageDay":[1,2,4,5,6],"recycleDay":[2,4,6]},{"address":"臺北市萬華區西園路二段281巷31號","startTime":1308,"endTime":1312,"lat":25.023328,"lon":121.492756,"garbageDay":[1,2,4,5,6],"recycleDay":[2,4,6]},{"address":"臺北市萬華區德昌街274號(東隆宮)","startTime":1313,"endTime":1316,"lat":25.023017,"lon":121.492154,"garbageDay":[1,2,4,5,6],"recycleDay":[2,4,6]},{"address":"臺北市萬華區寶興街92號","startTime":1318,"endTime":1324,"lat":25.025882,"lon":121.494298,"garbageDay":[1,2,4,5,6],"recycleDay":[2,4,6]},{"address":"臺北市萬華區寶興街144號","startTime":1325,"endTime":1328,"lat":25.02461,"lon":121.494879,"garbageDay":[1,2,4,5,6],"recycleDay":[2,4,6]},{"address":"臺北市萬華區東園街66巷25號前","startTime":1020,"endTime":1024,"lat":25.025477,"lon":121.495829,"garbageDay":[1,2,4,5,6],"recycleDay":[2,4,6]},{"address":"臺北市萬華區東園街66巷55號前","startTime":1025,"endTime":1030,"lat":25.025083,"lon":121.495288,"garbageDay":[1,2,4,5,6],"recycleDay":[2,4,6]},{"address":"臺北市萬華區寶興街140巷17弄1號之4","startTime":1031,"endTime":1037,"lat":25.024295,"lon":121.494272,"garbageDay":[1,2,4,5,6],"recycleDay":[2,4,6]},{"address":"臺北市萬華區寶興街140巷26號前","startTime":1038,"endTime":1043,"lat":25.023961,"lon":121.493773,"garbageDay":[1,2,4,5,6],"recycleDay":[2,4,6]},{"address":"臺北市萬華區西園路二段279號前","startTime":1045,"endTime":1050,"lat":25.024932,"lon":121.491631,"garbageDay":[1,2,4,5,6],"recycleDay":[2,4,6]},{"address":"臺北市萬華區西園路二段251號前","startTime":1051,"endTime":1056,"lat":25.026017,"lon":121.492807,"garbageDay":[1,2,4,5,6],"recycleDay":[2,4,6]},{"address":"臺北市萬華區西園路二段205號(土地銀行)","startTime":1057,"endTime":1065,"lat":25.0273648,"lon":121.4945267,"garbageDay":[1,2,4,5,6],"recycleDay":[2,4,6]},{"address":"臺北市萬華區東園街73巷104號(西園國小圍牆旁)","startTime":1155,"endTime":1159,"lat":25.026383,"lon":121.499641,"garbageDay":[1,2,4,5,6],"recycleDay":[2,4,6]},{"address":"臺北市萬華區東園街73巷60號前","startTime":1160,"endTime":1164,"lat":25.026589,"lon":121.498147,"garbageDay":[1,2,4,5,6],"recycleDay":[2,4,6]},{"address":"臺北市萬華區東園街73巷25號前","startTime":1165,"endTime":1169,"lat":25.026122,"lon":121.496985,"garbageDay":[1,2,4,5,6],"recycleDay":[2,4,6]},{"address":"臺北市萬華區東園街88號","startTime":1170,"endTime":1175,"lat":25.024717,"lon":121.496946,"garbageDay":[1,2,4,5,6],"recycleDay":[2,4,6]},{"address":"臺北市萬華區寶興街210巷2號","startTime":1176,"endTime":1181,"lat":25.0228,"lon":121.495565,"garbageDay":[1,2,4,5,6],"recycleDay":[2,4,6]},{"address":"臺北市萬華區德昌街185巷34號前","startTime":1182,"endTime":1187,"lat":25.022564,"lon":121.494567,"garbageDay":[1,2,4,5,6],"recycleDay":[2,4,6]},{"address":"臺北市萬華區德昌街185巷64號前","startTime":1188,"endTime":1193,"lat":25.022475,"lon":121.493429,"garbageDay":[1,2,4,5,6],"recycleDay":[2,4,6]},{"address":"臺北市萬華區德昌街185巷86號前","startTime":1194,"endTime":1199,"lat":25.022047,"lon":121.492429,"garbageDay":[1,2,4,5,6],"recycleDay":[2,4,6]},{"address":"臺北市萬華區西園路二段281巷15號前","startTime":1200,"endTime":1205,"lat":25.024155,"lon":121.49246,"garbageDay":[1,2,4,5,6],"recycleDay":[2,4,6]},{"address":"臺北市萬華區德昌街11號前(守望相助亭)","startTime":1290,"endTime":1294,"lat":25.025317,"lon":121.499685,"garbageDay":[1,2,4,5,6],"recycleDay":[2,4,6]},{"address":"臺北市萬華區德昌街42號前(慈安宮)","startTime":1295,"endTime":1299,"lat":25.025092,"lon":121.498803,"garbageDay":[1,2,4,5,6],"recycleDay":[2,4,6]},{"address":"臺北市萬華區德昌街76號前","startTime":1300,"endTime":1303,"lat":25.024822,"lon":121.498094,"garbageDay":[1,2,4,5,6],"recycleDay":[2,4,6]},{"address":"臺北市萬華區萬大路486巷61號(東興市場)","startTime":1306,"endTime":1312,"lat":25.020519,"lon":121.495798,"garbageDay":[1,2,4,5,6],"recycleDay":[2,4,6]},{"address":"臺北市萬華區武成街56巷27號前","startTime":1313,"endTime":1319,"lat":25.019125,"lon":121.494997,"garbageDay":[1,2,4,5,6],"recycleDay":[2,4,6]},{"address":"臺北市萬華區武成街61號","startTime":1320,"endTime":1325,"lat":25.018792,"lon":121.494869,"garbageDay":[1,2,4,5,6],"recycleDay":[2,4,6]},{"address":"臺北市萬華區艋舺大道170號","startTime":970,"endTime":973,"lat":25.03289653,"lon":121.5008311,"garbageDay":[1,2,4,5,6],"recycleDay":[2,4,6]},{"address":"臺北市萬華區艋舺大道142號","startTime":974,"endTime":977,"lat":25.03302889,"lon":121.501621,"garbageDay":[1,2,4,5,6],"recycleDay":[2,4,6]},{"address":"臺北市萬華區艋舺大道118號","startTime":978,"endTime":980,"lat":25.03319269,"lon":121.5023677,"garbageDay":[1,2,4,5,6],"recycleDay":[2,4,6]},{"address":"臺北市萬華區艋舺大道66號","startTime":981,"endTime":983,"lat":25.0336625,"lon":121.503652,"garbageDay":[1,2,4,5,6],"recycleDay":[2,4,6]},{"address":"臺北市萬華區汀州路一段2號前","startTime":984,"endTime":986,"lat":25.0332769,"lon":121.5041748,"garbageDay":[1,2,4,5,6],"recycleDay":[2,4,6]},{"address":"臺北市萬華區中華路二段64號前","startTime":987,"endTime":989,"lat":25.032318,"lon":121.504668,"garbageDay":[1,2,4,5,6],"recycleDay":[2,4,6]},{"address":"臺北市萬華區莒光路114號","startTime":990,"endTime":994,"lat":25.031305,"lon":121.503694,"garbageDay":[1,2,4,5,6],"recycleDay":[2,4,6]},{"address":"臺北市萬華區莒光路164號","startTime":995,"endTime":999,"lat":25.031261,"lon":121.502184,"garbageDay":[1,2,4,5,6],"recycleDay":[2,4,6]},{"address":"臺北市萬華區莒光路258號","startTime":1000,"endTime":1004,"lat":25.031181,"lon":121.499,"garbageDay":[1,2,4,5,6],"recycleDay":[2,4,6]},{"address":"臺北市萬華區莒光路322巷口","startTime":1004,"endTime":1008,"lat":25.031139,"lon":121.497627,"garbageDay":[1,2,4,5,6],"recycleDay":[2,4,6]},{"address":"臺北市萬華區西園路二段88號","startTime":1009,"endTime":1013,"lat":25.031018,"lon":121.496675,"garbageDay":[1,2,4,5,6],"recycleDay":[2,4,6]},{"address":"臺北市萬華區西園路二段144號","startTime":1013,"endTime":1017,"lat":25.030041,"lon":121.496197,"garbageDay":[1,2,4,5,6],"recycleDay":[2,4,6]},{"address":"臺北市萬華區西園路二段194號","startTime":1017,"endTime":1020,"lat":25.029185,"lon":121.495779,"garbageDay":[1,2,4,5,6],"recycleDay":[2,4,6]},{"address":"臺北市萬華區西園路二段256號","startTime":1021,"endTime":1024,"lat":25.027856,"lon":121.49473,"garbageDay":[1,2,4,5,6],"recycleDay":[2,4,6]},{"address":"臺北市萬華區西園路二段290-5號","startTime":1025,"endTime":1028,"lat":25.027011,"lon":121.493782,"garbageDay":[1,2,4,5,6],"recycleDay":[2,4,6]},{"address":"臺北市萬華區西園路二段296號","startTime":1029,"endTime":1032,"lat":25.026716,"lon":121.493423,"garbageDay":[1,2,4,5,6],"recycleDay":[2,4,6]},{"address":"臺北市萬華區西園路二段328號","startTime":1032,"endTime":1035,"lat":25.026005,"lon":121.492584,"garbageDay":[1,2,4,5,6],"recycleDay":[2,4,6]},{"address":"臺北市萬華區環河南路三段99號前","startTime":1036,"endTime":1040,"lat":25.025116,"lon":121.490577,"garbageDay":[1,2,4,5,6],"recycleDay":[2,4,6]},{"address":"臺北市萬華區萬大路20號","startTime":1130,"endTime":1133,"lat":25.032171,"lon":121.500501,"garbageDay":[1,2,4,5,6],"recycleDay":[2,4,6]},{"address":"臺北市萬華區萬大路88號","startTime":1134,"endTime":1138,"lat":25.030234,"lon":121.500472,"garbageDay":[1,2,4,5,6],"recycleDay":[2,4,6]},{"address":"臺北市萬華區西藏路332號","startTime":1139,"endTime":1142,"lat":25.029456,"lon":121.499973,"garbageDay":[1,2,4,5,6],"recycleDay":[2,4,6]},{"address":"臺北市萬華區西藏路436號","startTime":1143,"endTime":1146,"lat":25.029311,"lon":121.497095,"garbageDay":[1,2,4,5,6],"recycleDay":[2,4,6]},{"address":"臺北市萬華區西藏路450號","startTime":1147,"endTime":1150,"lat":25.029189,"lon":121.496545,"garbageDay":[1,2,4,5,6],"recycleDay":[2,4,6]},{"address":"臺北市萬華區西藏路484號","startTime":1152,"endTime":1156,"lat":25.028793,"lon":121.494246,"garbageDay":[1,2,4,5,6],"recycleDay":[2,4,6]},{"address":"臺北市萬華區西藏路514號","startTime":1156,"endTime":1160,"lat":25.028652,"lon":121.493289,"garbageDay":[1,2,4,5,6],"recycleDay":[2,4,6]},{"address":"臺北市萬華區西藏路538號","startTime":1160,"endTime":1164,"lat":25.028582,"lon":121.492388,"garbageDay":[1,2,4,5,6],"recycleDay":[2,4,6]},{"address":"臺北市萬華區雙園街60巷46弄15號","startTime":1165,"endTime":1168,"lat":25.029714,"lon":121.492777,"garbageDay":[1,2,4,5,6],"recycleDay":[2,4,6]},{"address":"臺北市萬華區艋舺大道390巷2號","startTime":1169,"endTime":1172,"lat":25.03079626,"lon":121.4940343,"garbageDay":[1,2,4,5,6],"recycleDay":[2,4,6]},{"address":"臺北市萬華區興義街2號","startTime":1257,"endTime":1261,"lat":25.02765893,"lon":121.4928805,"garbageDay":[1,2,4,5,6],"recycleDay":[2,4,6]},{"address":"臺北市萬華區興義街35號","startTime":1262,"endTime":1266,"lat":25.026704,"lon":121.491807,"garbageDay":[1,2,4,5,6],"recycleDay":[2,4,6]},{"address":"臺北市萬華區興義街56號","startTime":1267,"endTime":1270,"lat":25.025852,"lon":121.490773,"garbageDay":[1,2,4,5,6],"recycleDay":[2,4,6]},{"address":"臺北市萬華區環河南路三段55號前","startTime":1271,"endTime":1274,"lat":25.026199,"lon":121.490101,"garbageDay":[1,2,4,5,6],"recycleDay":[2,4,6]},{"address":"臺北市萬華區環河南路三段1號前","startTime":1275,"endTime":1278,"lat":25.027629,"lon":121.489946,"garbageDay":[1,2,4,5,6],"recycleDay":[2,4,6]},{"address":"臺北市萬華區西園路二段320巷70號","startTime":1279,"endTime":1282,"lat":25.027793,"lon":121.490294,"garbageDay":[1,2,4,5,6],"recycleDay":[2,4,6]},{"address":"臺北市萬華區西園路二段107號","startTime":1283,"endTime":1286,"lat":25.030113,"lon":121.496407,"garbageDay":[1,2,4,5,6],"recycleDay":[2,4,6]},{"address":"臺北市萬華區莒光路327號","startTime":1287,"endTime":1290,"lat":25.030997,"lon":121.497174,"garbageDay":[1,2,4,5,6],"recycleDay":[2,4,6]},{"address":"臺北市萬華區莒光路287號","startTime":1291,"endTime":1296,"lat":25.03107,"lon":121.499451,"garbageDay":[1,2,4,5,6],"recycleDay":[2,4,6]},{"address":"臺北市萬華區莒光路195號","startTime":1297,"endTime":1301,"lat":25.031132,"lon":121.501878,"garbageDay":[1,2,4,5,6],"recycleDay":[2,4,6]},{"address":"臺北市萬華區莒光路171號","startTime":1302,"endTime":1307,"lat":25.031154,"lon":121.502665,"garbageDay":[1,2,4,5,6],"recycleDay":[2,4,6]},{"address":"臺北市萬華區中華路二段138號前","startTime":1308,"endTime":1312,"lat":25.030703,"lon":121.504112,"garbageDay":[1,2,4,5,6],"recycleDay":[2,4,6]},{"address":"臺北市萬華區西藏路194號","startTime":1313,"endTime":1318,"lat":25.029883,"lon":121.502944,"garbageDay":[1,2,4,5,6],"recycleDay":[2,4,6]},{"address":"臺北市萬華區西藏路234號","startTime":1318,"endTime":1322,"lat":25.029703,"lon":121.501926,"garbageDay":[1,2,4,5,6],"recycleDay":[2,4,6]},{"address":"臺北市萬華區萬大路87號","startTime":1323,"endTime":1326,"lat":25.030338,"lon":121.500612,"garbageDay":[1,2,4,5,6],"recycleDay":[2,4,6]},{"address":"臺北市萬華區萬大路423巷12號","startTime":985,"endTime":990,"lat":25.02130978,"lon":121.4992187,"garbageDay":[1,2,4,5,6],"recycleDay":[2,4,6]},{"address":"臺北市萬華區萬大路423巷30弄口","startTime":990,"endTime":995,"lat":25.021133,"lon":121.500382,"garbageDay":[1,2,4,5,6],"recycleDay":[2,4,6]},{"address":"臺北市萬華區萬大路423巷48號","startTime":996,"endTime":1000,"lat":25.0217086,"lon":121.5014433,"garbageDay":[1,2,4,5,6],"recycleDay":[2,4,6]},{"address":"臺北市萬華區萬青街199號","startTime":1001,"endTime":1005,"lat":25.0222589,"lon":121.5015613,"garbageDay":[1,2,4,5,6],"recycleDay":[2,4,6]},{"address":"臺北市萬華區長泰街2號","startTime":1006,"endTime":1010,"lat":25.023148,"lon":121.50144,"garbageDay":[1,2,4,5,6],"recycleDay":[2,4,6]},{"address":"臺北市萬華區長泰街37號","startTime":1011,"endTime":1015,"lat":25.023195,"lon":121.500561,"garbageDay":[1,2,4,5,6],"recycleDay":[2,4,6]},{"address":"臺北市萬華區長泰街75號(天橋下)","startTime":1016,"endTime":1020,"lat":25.022686,"lon":121.499809,"garbageDay":[1,2,4,5,6],"recycleDay":[2,4,6]},{"address":"臺北市萬華區萬大路139號","startTime":1025,"endTime":1035,"lat":25.0294522,"lon":121.5007185,"garbageDay":[1,2,4,5,6],"recycleDay":[2,4,6]},{"address":"臺北市萬華區西藏路113號","startTime":1039,"endTime":1044,"lat":25.029804,"lon":121.503052,"garbageDay":[1,2,4,5,6],"recycleDay":[2,4,6]},{"address":"臺北市萬華區中華路二段334號","startTime":1045,"endTime":1049,"lat":25.02952451,"lon":121.5044479,"garbageDay":[1,2,4,5,6],"recycleDay":[2,4,6]},{"address":"臺北市萬華區富民路93號","startTime":1150,"endTime":1157,"lat":25.01854378,"lon":121.4989279,"garbageDay":[1,2,4,5,6],"recycleDay":[2,4,6]},{"address":"臺北市萬華區富民路147號","startTime":1157,"endTime":1160,"lat":25.018177,"lon":121.500045,"garbageDay":[1,2,4,5,6],"recycleDay":[2,4,6]},{"address":"臺北市萬華區水源路209之1號","startTime":1161,"endTime":1167,"lat":25.019093,"lon":121.502125,"garbageDay":[1,2,4,5,6],"recycleDay":[2,4,6]},{"address":"臺北市萬華區水源路203號","startTime":1168,"endTime":1175,"lat":25.01950707,"lon":121.5031272,"garbageDay":[1,2,4,5,6],"recycleDay":[2,4,6]},{"address":"臺北市萬華區青年路152巷1號","startTime":1177,"endTime":1183,"lat":25.020961,"lon":121.50219,"garbageDay":[1,2,4,5,6],"recycleDay":[2,4,6]},{"address":"臺北市萬華區青年路152巷29號","startTime":1183,"endTime":1190,"lat":25.020577,"lon":121.501669,"garbageDay":[1,2,4,5,6],"recycleDay":[2,4,6]},{"address":"臺北市萬華區青年路152巷57號","startTime":1190,"endTime":1196,"lat":25.019718,"lon":121.50108,"garbageDay":[1,2,4,5,6],"recycleDay":[2,4,6]},{"address":"臺北市萬華區萬大路493巷58弄10號","startTime":1197,"endTime":1202,"lat":25.020084,"lon":121.500343,"garbageDay":[1,2,4,5,6],"recycleDay":[2,4,6]},{"address":"臺北市萬華區萬大路423巷29號","startTime":1202,"endTime":1206,"lat":25.02119059,"lon":121.4999259,"garbageDay":[1,2,4,5,6],"recycleDay":[2,4,6]},{"address":"臺北市萬華區中華路二段364巷17弄5號","startTime":1275,"endTime":1280,"lat":25.02835196,"lon":121.5043802,"garbageDay":[1,2,4,5,6],"recycleDay":[2,4,6]},{"address":"臺北市萬華區中華路二段416巷3號","startTime":1280,"endTime":1285,"lat":25.027368,"lon":121.5049,"garbageDay":[1,2,4,5,6],"recycleDay":[2,4,6]},{"address":"臺北市萬華區中華路二段416巷17號","startTime":1286,"endTime":1290,"lat":25.0269213,"lon":121.5035843,"garbageDay":[1,2,4,5,6],"recycleDay":[2,4,6]},{"address":"臺北市萬華區中華路二段416巷118號","startTime":1292,"endTime":1300,"lat":25.026636,"lon":121.501606,"garbageDay":[1,2,4,5,6],"recycleDay":[2,4,6]},{"address":"臺北市萬華區西藏路163號","startTime":1302,"endTime":1307,"lat":25.029333,"lon":121.501165,"garbageDay":[1,2,4,5,6],"recycleDay":[2,4,6]},{"address":"臺北市萬華區西藏路125巷5號","startTime":1308,"endTime":1313,"lat":25.02892,"lon":121.502282,"garbageDay":[1,2,4,5,6],"recycleDay":[2,4,6]},{"address":"臺北市萬華區西藏路125巷11號","startTime":1313,"endTime":1318,"lat":25.028488,"lon":121.502386,"garbageDay":[1,2,4,5,6],"recycleDay":[2,4,6]},{"address":"臺北市萬華區雙和街5號(市場)","startTime":1320,"endTime":1330,"lat":25.02799519,"lon":121.5026512,"garbageDay":[1,2,4,5,6],"recycleDay":[2,4,6]},{"address":"臺北市萬華區環河南路一段183號前","startTime":960,"endTime":964,"lat":25.04046,"lon":121.498444,"garbageDay":[1,2,4,5,6],"recycleDay":[2,4,6]},{"address":"臺北市萬華區西園路一段36號前","startTime":965,"endTime":970,"lat":25.02269815,"lon":121.499804,"garbageDay":[1,2,4,5,6],"recycleDay":[2,4,6]},{"address":"臺北市萬華區西園路一段74號前","startTime":972,"endTime":978,"lat":25.039319,"lon":121.499747,"garbageDay":[1,2,4,5,6],"recycleDay":[2,4,6]},{"address":"臺北市萬華區西昌街155號前","startTime":980,"endTime":990,"lat":25.0393789,"lon":121.5007829,"garbageDay":[1,2,4,5,6],"recycleDay":[2,4,6]},{"address":"臺北市萬華區西昌街97號前","startTime":991,"endTime":995,"lat":25.04110522,"lon":121.5008071,"garbageDay":[1,2,4,5,6],"recycleDay":[2,4,6]},{"address":"臺北市萬華區內江街178號","startTime":996,"endTime":1000,"lat":25.04176314,"lon":121.500989,"garbageDay":[1,2,4,5,6],"recycleDay":[2,4,6]},{"address":"臺北市萬華區內江街148號之3號前","startTime":1001,"endTime":1007,"lat":25.04171279,"lon":121.5016317,"garbageDay":[1,2,4,5,6],"recycleDay":[2,4,6]},{"address":"臺北市萬華區長沙街二段136之11號前","startTime":1008,"endTime":1015,"lat":25.040342,"lon":121.502993,"garbageDay":[1,2,4,5,6],"recycleDay":[2,4,6]},{"address":"臺北市萬華區長沙街二段114號對面","startTime":1016,"endTime":1020,"lat":25.040315,"lon":121.503896,"garbageDay":[1,2,4,5,6],"recycleDay":[2,4,6]},{"address":"臺北市萬華區貴陽街二段254號前","startTime":1110,"endTime":1114,"lat":25.039941,"lon":121.498299,"garbageDay":[1,2,4,5,6],"recycleDay":[2,4,6]},{"address":"臺北市萬華區貴陽街二段230號之1","startTime":1115,"endTime":1120,"lat":25.039978,"lon":121.499198,"garbageDay":[1,2,4,5,6],"recycleDay":[2,4,6]},{"address":"臺北市萬華區貴陽街二段196號","startTime":1121,"endTime":1125,"lat":25.040075,"lon":121.500231,"garbageDay":[1,2,4,5,6],"recycleDay":[2,4,6]},{"address":"臺北市萬華區貴陽街二段166號前","startTime":1126,"endTime":1130,"lat":25.0401902,"lon":121.5012622,"garbageDay":[1,2,4,5,6],"recycleDay":[2,4,6]},{"address":"臺北市萬華區貴陽街二段94號前","startTime":1132,"endTime":1140,"lat":25.03985584,"lon":121.5033223,"garbageDay":[1,2,4,5,6],"recycleDay":[2,4,6]},{"address":"臺北市萬華區昆明街175號前","startTime":1141,"endTime":1145,"lat":25.03964318,"lon":121.5041954,"garbageDay":[1,2,4,5,6],"recycleDay":[2,4,6]},{"address":"臺北市萬華區貴陽街二段28號前","startTime":1146,"endTime":1152,"lat":25.03951392,"lon":121.5054051,"garbageDay":[1,2,4,5,6],"recycleDay":[2,4,6]},{"address":"臺北市萬華區柳州街60號前","startTime":1153,"endTime":1160,"lat":25.03818022,"lon":121.5051994,"garbageDay":[1,2,4,5,6],"recycleDay":[2,4,6]},{"address":"臺北市萬華區昆明街284號前","startTime":1161,"endTime":1168,"lat":25.03858364,"lon":121.5039164,"garbageDay":[1,2,4,5,6],"recycleDay":[2,4,6]},{"address":"臺北市萬華區昆明街161號前","startTime":1170,"endTime":1175,"lat":25.04027473,"lon":121.5043456,"garbageDay":[1,2,4,5,6],"recycleDay":[2,4,6]},{"address":"臺北市萬華區長沙街二段7號前","startTime":1265,"endTime":1270,"lat":25.04065197,"lon":121.5071874,"garbageDay":[1,2,4,5,6],"recycleDay":[2,4,6]},{"address":"臺北市萬華區桂林路65巷2之1號旁","startTime":1282,"endTime":1286,"lat":25.03833806,"lon":121.5025606,"garbageDay":[1,2,4,5,6],"recycleDay":[2,4,6]},{"address":"臺北市萬華區康定路89號前","startTime":1287,"endTime":1294,"lat":25.03994021,"lon":121.5020361,"garbageDay":[1,2,4,5,6],"recycleDay":[2,4,6]},{"address":"臺北市萬華區內江街142之1號前","startTime":1295,"endTime":1300,"lat":25.04164662,"lon":121.5025722,"garbageDay":[1,2,4,5,6],"recycleDay":[2,4,6]},{"address":"臺北市萬華區內江街110號前","startTime":1301,"endTime":1305,"lat":25.04157729,"lon":121.5034296,"garbageDay":[1,2,4,5,6],"recycleDay":[2,4,6]},{"address":"臺北市萬華區內江街74之1號前","startTime":1306,"endTime":1310,"lat":25.041492,"lon":121.504185,"garbageDay":[1,2,4,5,6],"recycleDay":[2,4,6]},{"address":"臺北市萬華區昆明街160號前","startTime":1311,"endTime":1315,"lat":25.04212479,"lon":121.5046069,"garbageDay":[1,2,4,5,6],"recycleDay":[2,4,6]},{"address":"臺北市萬華區昆明街134之2號前","startTime":1316,"endTime":1320,"lat":25.04272006,"lon":121.5047244,"garbageDay":[1,2,4,5,6],"recycleDay":[2,4,6]},{"address":"臺北市萬華區成都路105號前","startTime":1321,"endTime":1325,"lat":25.04324358,"lon":121.5042071,"garbageDay":[1,2,4,5,6],"recycleDay":[2,4,6]},{"address":"臺北市大同區延平北路四段116號","startTime":1010,"endTime":1014,"lat":25.0720121,"lon":121.510958,"garbageDay":[1,2,4,5,6],"recycleDay":[2,4,6]},{"address":"臺北市大同區延平北路四段66號","startTime":1015,"endTime":1016,"lat":25.070551,"lon":121.5108,"garbageDay":[1,2,4,5,6],"recycleDay":[2,4,6]},{"address":"臺北市大同區延平北路四段48號","startTime":1017,"endTime":1022,"lat":25.069969,"lon":121.510745,"garbageDay":[1,2,4,5,6],"recycleDay":[2,4,6]},{"address":"臺北市大同區延平北路四段20號","startTime":1023,"endTime":1025,"lat":25.069227,"lon":121.510754,"garbageDay":[1,2,4,5,6],"recycleDay":[2,4,6]},{"address":"臺北市大同區民族西路、迪化街二段220號","startTime":1026,"endTime":1030,"lat":25.068669,"lon":121.5108424,"garbageDay":[1,2,4,5,6],"recycleDay":[2,4,6]},{"address":"臺北市大同區延平北路三段116號之2","startTime":1031,"endTime":1035,"lat":25.06702,"lon":121.510861,"garbageDay":[1,2,4,5,6],"recycleDay":[2,4,6]},{"address":"臺北市大同區延平北路三段104巷口","startTime":1036,"endTime":1037,"lat":25.0664907,"lon":121.5109816,"garbageDay":[1,2,4,5,6],"recycleDay":[2,4,6]},{"address":"臺北市大同區延平北路三段82號、昌吉街口","startTime":1038,"endTime":1041,"lat":25.0658591,"lon":121.5109211,"garbageDay":[1,2,4,5,6],"recycleDay":[2,4,6]},{"address":"臺北市大同區延平北路三段、伊寧街口","startTime":1042,"endTime":1044,"lat":25.06464273,"lon":121.5110904,"garbageDay":[1,2,4,5,6],"recycleDay":[2,4,6]},{"address":"臺北市大同區延平北路三段18號巷口","startTime":1045,"endTime":1047,"lat":25.06385,"lon":121.511036,"garbageDay":[1,2,4,5,6],"recycleDay":[2,4,6]},{"address":"臺北市大同區重慶北路三段322巷口","startTime":1170,"endTime":1174,"lat":25.07554155,"lon":121.5137726,"garbageDay":[1,2,4,5,6],"recycleDay":[2,4,6]},{"address":"臺北市大同區重慶北路三段310號","startTime":1175,"endTime":1176,"lat":25.073954,"lon":121.513573,"garbageDay":[1,2,4,5,6],"recycleDay":[2,4,6]},{"address":"臺北市大同區重慶北路三段296巷口","startTime":1177,"endTime":1179,"lat":25.07351541,"lon":121.5137029,"garbageDay":[1,2,4,5,6],"recycleDay":[2,4,6]},{"address":"臺北市大同區重慶北路三段278號之2、哈密街口","startTime":1180,"endTime":1185,"lat":25.072803,"lon":121.513715,"garbageDay":[1,2,4,5,6],"recycleDay":[2,4,6]},{"address":"臺北市大同區重慶北路三段252巷口","startTime":1187,"endTime":1190,"lat":25.07129487,"lon":121.5136814,"garbageDay":[1,2,4,5,6],"recycleDay":[2,4,6]},{"address":"臺北市大同區重慶北三段236巷口","startTime":1191,"endTime":1193,"lat":25.070437,"lon":121.513619,"garbageDay":[1,2,4,5,6],"recycleDay":[2,4,6]},{"address":"臺北市大同區民族西路221巷口","startTime":1194,"endTime":1196,"lat":25.069524,"lon":121.513491,"garbageDay":[1,2,4,5,6],"recycleDay":[2,4,6]},{"address":"臺北市大同區重慶北路三段152巷口","startTime":1197,"endTime":1200,"lat":25.068174,"lon":121.513686,"garbageDay":[1,2,4,5,6],"recycleDay":[2,4,6]},{"address":"臺北市大同區重慶北路三段136巷口","startTime":1201,"endTime":1203,"lat":25.06769431,"lon":121.5136546,"garbageDay":[1,2,4,5,6],"recycleDay":[2,4,6]},{"address":"臺北市大同區重慶北路三段96號","startTime":1204,"endTime":1206,"lat":25.066629,"lon":121.513462,"garbageDay":[1,2,4,5,6],"recycleDay":[2,4,6]},{"address":"臺北市大同區重慶北路三段、伊寧街口","startTime":1207,"endTime":1212,"lat":25.0642813,"lon":121.5134344,"garbageDay":[1,2,4,5,6],"recycleDay":[2,4,6]},{"address":"臺北市大同區民權西路、延平北路口","startTime":1312,"endTime":1316,"lat":25.063516,"lon":121.511294,"garbageDay":[1,2,4,5,6],"recycleDay":[2,4,6]},{"address":"臺北市大同區延平北路三段17巷口","startTime":1317,"endTime":1320,"lat":25.063805,"lon":121.511164,"garbageDay":[1,2,4,5,6],"recycleDay":[2,4,6]},{"address":"臺北市大同區延平北路三段、景化街口","startTime":1321,"endTime":1323,"lat":25.06511894,"lon":121.5111011,"garbageDay":[1,2,4,5,6],"recycleDay":[2,4,6]},{"address":"臺北市大同區延平北路三段63號","startTime":1325,"endTime":1328,"lat":25.0659393,"lon":121.5110664,"garbageDay":[1,2,4,5,6],"recycleDay":[2,4,6]},{"address":"臺北市大同區延平北路三段85號","startTime":1329,"endTime":1333,"lat":25.067372,"lon":121.51105,"garbageDay":[1,2,4,5,6],"recycleDay":[2,4,6]},{"address":"臺北市大同區延平北路三段107號","startTime":1334,"endTime":1335,"lat":25.068057,"lon":121.510998,"garbageDay":[1,2,4,5,6],"recycleDay":[2,4,6]},{"address":"臺北市大同區延平北路四段19號","startTime":1336,"endTime":1340,"lat":25.069288,"lon":121.510972,"garbageDay":[1,2,4,5,6],"recycleDay":[2,4,6]},{"address":"臺北市大同區延平北路四段93號","startTime":1341,"endTime":1344,"lat":25.07084,"lon":121.51101,"garbageDay":[1,2,4,5,6],"recycleDay":[2,4,6]},{"address":"臺北市大同區蘭州街89巷口、蘭州公園","startTime":960,"endTime":970,"lat":25.064273,"lon":121.515572,"garbageDay":[1,2,4,5,6],"recycleDay":[2,4,6]},{"address":"臺北市大同區大龍街85巷口","startTime":975,"endTime":980,"lat":25.06649,"lon":121.515995,"garbageDay":[1,2,4,5,6],"recycleDay":[2,4,6]},{"address":"臺北市大同區重慶北路三段113巷28號","startTime":982,"endTime":988,"lat":25.067274,"lon":121.514938,"garbageDay":[1,2,4,5,6],"recycleDay":[2,4,6]},{"address":"臺北市大同區民族西路162巷口","startTime":990,"endTime":995,"lat":25.068602,"lon":121.515437,"garbageDay":[1,2,4,5,6],"recycleDay":[2,4,6]},{"address":"臺北市大同區民族西路78號前","startTime":996,"endTime":1000,"lat":25.068551,"lon":121.517667,"garbageDay":[1,2,4,5,6],"recycleDay":[2,4,6]},{"address":"臺北市大同區承德路三段122巷口","startTime":1002,"endTime":1008,"lat":25.067273,"lon":121.518301,"garbageDay":[1,2,4,5,6],"recycleDay":[2,4,6]},{"address":"臺北市大同區承德路三段90巷口","startTime":1009,"endTime":1013,"lat":25.066382,"lon":121.51829,"garbageDay":[1,2,4,5,6],"recycleDay":[2,4,6]},{"address":"臺北市大同區承德路三段60號前","startTime":1014,"endTime":1017,"lat":25.065367,"lon":121.518262,"garbageDay":[1,2,4,5,6],"recycleDay":[2,4,6]},{"address":"臺北市大同區承德路三段24巷口","startTime":1018,"endTime":1021,"lat":25.064198,"lon":121.518218,"garbageDay":[1,2,4,5,6],"recycleDay":[2,4,6]},{"address":"臺北市大同區承德路三段43號前","startTime":1022,"endTime":1025,"lat":25.064635,"lon":121.518415,"garbageDay":[1,2,4,5,6],"recycleDay":[2,4,6]},{"address":"臺北市大同區承德路三段85巷口","startTime":1026,"endTime":1029,"lat":25.066053,"lon":121.518445,"garbageDay":[1,2,4,5,6],"recycleDay":[2,4,6]},{"address":"臺北市大同區承德路三段129巷口","startTime":1030,"endTime":1034,"lat":25.067295,"lon":121.518458,"garbageDay":[1,2,4,5,6],"recycleDay":[2,4,6]},{"address":"臺北市大同區承德路三段159巷口","startTime":1035,"endTime":1038,"lat":25.068052,"lon":121.518475,"garbageDay":[1,2,4,5,6],"recycleDay":[2,4,6]},{"address":"臺北市大同區民族西路50號前","startTime":1039,"endTime":1043,"lat":25.068524,"lon":121.519095,"garbageDay":[1,2,4,5,6],"recycleDay":[2,4,6]},{"address":"臺北市大同區大龍街91巷11號前","startTime":1160,"endTime":1170,"lat":25.067305,"lon":121.516604,"garbageDay":[1,2,4,5,6],"recycleDay":[2,4,6]},{"address":"臺北市大同區承德路三段177巷口","startTime":1175,"endTime":1178,"lat":25.069115,"lon":121.518502,"garbageDay":[1,2,4,5,6],"recycleDay":[2,4,6]},{"address":"臺北市大同區承德路三段225巷口","startTime":1179,"endTime":1183,"lat":25.070159,"lon":121.518512,"garbageDay":[1,2,4,5,6],"recycleDay":[2,4,6]},{"address":"臺北市大同區承德路三段247巷口","startTime":1184,"endTime":1186,"lat":25.071142,"lon":121.518557,"garbageDay":[1,2,4,5,6],"recycleDay":[2,4,6]},{"address":"臺北市大同區承德路三段176巷口","startTime":1188,"endTime":1190,"lat":25.069123,"lon":121.518357,"garbageDay":[1,2,4,5,6],"recycleDay":[2,4,6]},{"address":"臺北市大同區民族西路133號前","startTime":1191,"endTime":1193,"lat":25.068581,"lon":121.516634,"garbageDay":[1,2,4,5,6],"recycleDay":[2,4,6]},{"address":"臺北市大同區民族西路169巷口","startTime":1194,"endTime":1205,"lat":25.068615,"lon":121.515409,"garbageDay":[1,2,4,5,6],"recycleDay":[2,4,6]},{"address":"臺北市大同區重慶北路三段191巷口","startTime":1206,"endTime":1210,"lat":25.069446,"lon":121.513855,"garbageDay":[1,2,4,5,6],"recycleDay":[2,4,6]},{"address":"臺北市大同區重慶北路三段223巷口","startTime":1211,"endTime":1215,"lat":25.0716369,"lon":121.513891,"garbageDay":[1,2,4,5,6],"recycleDay":[2,4,6]},{"address":"臺北市大同區重慶北路三段259巷口","startTime":1216,"endTime":1220,"lat":25.0716796,"lon":121.5134235,"garbageDay":[1,2,4,5,6],"recycleDay":[2,4,6]},{"address":"臺北市大同區酒泉街37號前","startTime":1295,"endTime":1299,"lat":25.0706,"lon":121.518954,"garbageDay":[1,2,4,5,6],"recycleDay":[2,4,6]},{"address":"臺北市大同區承德路三段214巷口","startTime":1301,"endTime":1305,"lat":25.07148989,"lon":121.5184627,"garbageDay":[1,2,4,5,6],"recycleDay":[2,4,6]},{"address":"臺北市大同區承德路三段208巷17號前","startTime":1306,"endTime":1309,"lat":25.070477,"lon":121.517809,"garbageDay":[1,2,4,5,6],"recycleDay":[2,4,6]},{"address":"臺北市大同區大龍街215巷口大龍公園","startTime":1310,"endTime":1317,"lat":25.070526,"lon":121.515907,"garbageDay":[1,2,4,5,6],"recycleDay":[2,4,6]},{"address":"臺北市大同區大龍街187巷口","startTime":1318,"endTime":1320,"lat":25.069194,"lon":121.515919,"garbageDay":[1,2,4,5,6],"recycleDay":[2,4,6]},{"address":"臺北市大同區酒泉街78號前","startTime":1323,"endTime":1328,"lat":25.072026,"lon":121.514874,"garbageDay":[1,2,4,5,6],"recycleDay":[2,4,6]},{"address":"臺北市大同區酒泉街50巷口","startTime":1329,"endTime":1333,"lat":25.071959,"lon":121.516664,"garbageDay":[1,2,4,5,6],"recycleDay":[2,4,6]},{"address":"臺北市大同區南京西路迪化街口","startTime":976,"endTime":979,"lat":25.05382,"lon":121.510224,"garbageDay":[1,2,4,5,6],"recycleDay":[2,4,6]},{"address":"臺北市大同區迪化街一段42號","startTime":980,"endTime":983,"lat":25.054878,"lon":121.510055,"garbageDay":[1,2,4,5,6],"recycleDay":[2,4,6]},{"address":"臺北市大同區迪化街一段21號","startTime":984,"endTime":987,"lat":25.055036,"lon":121.510056,"garbageDay":[1,2,4,5,6],"recycleDay":[2,4,6]},{"address":"臺北市大同區迪化街一段63號第一銀行","startTime":988,"endTime":991,"lat":25.055689,"lon":121.509982,"garbageDay":[1,2,4,5,6],"recycleDay":[2,4,6]},{"address":"臺北市大同區迪化街、民生西路口","startTime":993,"endTime":996,"lat":25.056807,"lon":121.509861,"garbageDay":[1,2,4,5,6],"recycleDay":[2,4,6]},{"address":"臺北市大同區民生西路、民樂街口","startTime":997,"endTime":999,"lat":25.056908,"lon":121.51091,"garbageDay":[1,2,4,5,6],"recycleDay":[2,4,6]},{"address":"臺北市大同區民生西路304號","startTime":1001,"endTime":1004,"lat":25.05694,"lon":121.512314,"garbageDay":[1,2,4,5,6],"recycleDay":[2,4,6]},{"address":"臺北市大同區民生西路286號","startTime":1006,"endTime":1009,"lat":25.056964,"lon":121.512931,"garbageDay":[1,2,4,5,6],"recycleDay":[2,4,6]},{"address":"臺北市大同區重慶北路二段64巷口","startTime":1012,"endTime":1016,"lat":25.055895,"lon":121.513842,"garbageDay":[1,2,4,5,6],"recycleDay":[2,4,6]},{"address":"臺北市大同區重慶北路二段46巷口","startTime":1018,"endTime":1023,"lat":25.055332,"lon":121.513983,"garbageDay":[1,2,4,5,6],"recycleDay":[2,4,6]},{"address":"臺北市大同區天水路27號","startTime":1026,"endTime":1029,"lat":25.052927,"lon":121.513143,"garbageDay":[1,2,4,5,6],"recycleDay":[2,4,6]},{"address":"臺北市大同區天水路53號","startTime":1030,"endTime":1033,"lat":25.052615,"lon":121.51265,"garbageDay":[1,2,4,5,6],"recycleDay":[2,4,6]},{"address":"臺北市大同區南京西路貴德街口","startTime":1135,"endTime":1138,"lat":25.053548,"lon":121.508114,"garbageDay":[1,2,4,5,6],"recycleDay":[2,4,6]},{"address":"臺北市大同區南京西路434巷口","startTime":1139,"endTime":1142,"lat":25.053341,"lon":121.508987,"garbageDay":[1,2,4,5,6],"recycleDay":[2,4,6]},{"address":"臺北市大同區南京西路412巷口","startTime":1143,"endTime":1146,"lat":25.053318,"lon":121.509258,"garbageDay":[1,2,4,5,6],"recycleDay":[2,4,6]},{"address":"臺北市大同區塔城街50巷口","startTime":1149,"endTime":1152,"lat":25.052431,"lon":121.510365,"garbageDay":[1,2,4,5,6],"recycleDay":[2,4,6]},{"address":"臺北市大同區塔城街7號","startTime":1154,"endTime":1157,"lat":25.05039,"lon":121.510549,"garbageDay":[1,2,4,5,6],"recycleDay":[2,4,6]},{"address":"臺北市大同區南京西路354號","startTime":1160,"endTime":1163,"lat":25.05382,"lon":121.511255,"garbageDay":[1,2,4,5,6],"recycleDay":[2,4,6]},{"address":"臺北市大同區南京西路344巷口","startTime":1165,"endTime":1168,"lat":25.05391,"lon":121.51223,"garbageDay":[1,2,4,5,6],"recycleDay":[2,4,6]},{"address":"臺北市大同區南京西路華亭街口","startTime":1169,"endTime":1172,"lat":25.053969,"lon":121.513154,"garbageDay":[1,2,4,5,6],"recycleDay":[2,4,6]},{"address":"臺北市大同區南京西路302巷口","startTime":1173,"endTime":1176,"lat":25.053997,"lon":121.513585,"garbageDay":[1,2,4,5,6],"recycleDay":[2,4,6]},{"address":"臺北市大同區重慶北路一段62號","startTime":1178,"endTime":1181,"lat":25.051916,"lon":121.513882,"garbageDay":[1,2,4,5,6],"recycleDay":[2,4,6]},{"address":"臺北市大同區重慶北路一段26巷口","startTime":1183,"endTime":1187,"lat":25.050607,"lon":121.513572,"garbageDay":[1,2,4,5,6],"recycleDay":[2,4,6]},{"address":"臺北市大同區長安西路298號","startTime":1192,"endTime":1195,"lat":25.051921,"lon":121.512531,"garbageDay":[1,2,4,5,6],"recycleDay":[2,4,6]},{"address":"臺北市大同區長安西路258號","startTime":1196,"endTime":1199,"lat":25.051732,"lon":121.513315,"garbageDay":[1,2,4,5,6],"recycleDay":[2,4,6]},{"address":"臺北市大同區延平北路二段272巷口","startTime":1280,"endTime":1284,"lat":25.062073,"lon":121.511237,"garbageDay":[1,2,4,5,6],"recycleDay":[2,4,6]},{"address":"臺北市大同區延平北路二段250巷口","startTime":1286,"endTime":1289,"lat":25.060127,"lon":121.511356,"garbageDay":[1,2,4,5,6],"recycleDay":[2,4,6]},{"address":"臺北市大同區延平北路二段210巷口","startTime":1290,"endTime":1293,"lat":25.059182,"lon":121.511412,"garbageDay":[1,2,4,5,6],"recycleDay":[2,4,6]},{"address":"臺北市大同區延平北路二段225號","startTime":1295,"endTime":1297,"lat":25.0599459,"lon":121.5113967,"garbageDay":[1,2,4,5,6],"recycleDay":[2,4,6]},{"address":"臺北市大同區民權西路250巷口","startTime":1301,"endTime":1304,"lat":25.062824,"lon":121.512737,"garbageDay":[1,2,4,5,6],"recycleDay":[2,4,6]},{"address":"臺北市大同區涼州街安西街口永樂國小","startTime":1311,"endTime":1314,"lat":25.06065698,"lon":121.5100099,"garbageDay":[1,2,4,5,6],"recycleDay":[2,4,6]},{"address":"臺北市大同區環河北路一段365號","startTime":1316,"endTime":1318,"lat":25.0611,"lon":121.509,"garbageDay":[1,2,4,5,6],"recycleDay":[2,4,6]},{"address":"臺北市大同區環河北路一段413巷口","startTime":1320,"endTime":1323,"lat":25.062181,"lon":121.508715,"garbageDay":[1,2,4,5,6],"recycleDay":[2,4,6]},{"address":"臺北市大同區承德路三段290號前","startTime":1014,"endTime":1018,"lat":25.073955,"lon":121.519584,"garbageDay":[1,2,4,5,6],"recycleDay":[2,4,6]},{"address":"臺北市大同區承德路三段224號前","startTime":1019,"endTime":1023,"lat":25.072156,"lon":121.518645,"garbageDay":[1,2,4,5,6],"recycleDay":[2,4,6]},{"address":"臺北市大同區酒泉街103巷口","startTime":1024,"endTime":1029,"lat":25.072026,"lon":121.515341,"garbageDay":[1,2,4,5,6],"recycleDay":[2,4,6]},{"address":"臺北市大同區重慶北路三段、哈密街口","startTime":1030,"endTime":1035,"lat":25.072969,"lon":121.513895,"garbageDay":[1,2,4,5,6],"recycleDay":[2,4,6]},{"address":"臺北市大同區重慶北路三段335巷口","startTime":1037,"endTime":1041,"lat":25.074623,"lon":121.513906,"garbageDay":[1,2,4,5,6],"recycleDay":[2,4,6]},{"address":"臺北市大同區重慶北路三段363號","startTime":1042,"endTime":1045,"lat":25.075427,"lon":121.513924,"garbageDay":[1,2,4,5,6],"recycleDay":[2,4,6]},{"address":"臺北市大同區哈密街59巷底敦煌橋旁","startTime":1170,"endTime":1177,"lat":25.076246,"lon":121.515717,"garbageDay":[1,2,4,5,6],"recycleDay":[2,4,6]},{"address":"臺北市大同區哈密街59巷哈密公園","startTime":1178,"endTime":1188,"lat":25.074936,"lon":121.51574,"garbageDay":[1,2,4,5,6],"recycleDay":[2,4,6]},{"address":"臺北市大同區庫倫街13巷口","startTime":1190,"endTime":1193,"lat":25.071998,"lon":121.517361,"garbageDay":[1,2,4,5,6],"recycleDay":[2,4,6]},{"address":"臺北市大同區哈密街45巷、大龍國小東南角","startTime":1194,"endTime":1200,"lat":25.073399,"lon":121.517397,"garbageDay":[1,2,4,5,6],"recycleDay":[2,4,6]},{"address":"臺北市大同區哈密街23巷、大龍國小東北角","startTime":1201,"endTime":1209,"lat":25.07459124,"lon":121.5172177,"garbageDay":[1,2,4,5,6],"recycleDay":[2,4,6]},{"address":"臺北市大同區敦煌路78號前","startTime":1210,"endTime":1213,"lat":25.075657,"lon":121.5182,"garbageDay":[1,2,4,5,6],"recycleDay":[2,4,6]},{"address":"臺北市大同區敦煌路24巷口","startTime":1214,"endTime":1217,"lat":25.075291,"lon":121.519561,"garbageDay":[1,2,4,5,6],"recycleDay":[2,4,6]},{"address":"臺北市大同區敦煌路15號前","startTime":1218,"endTime":1221,"lat":25.075242,"lon":121.520262,"garbageDay":[1,2,4,5,6],"recycleDay":[2,4,6]},{"address":"臺北市大同區昌吉街110巷口","startTime":1290,"endTime":1297,"lat":25.065921,"lon":121.514752,"garbageDay":[1,2,4,5,6],"recycleDay":[2,4,6]},{"address":"臺北市大同區昌吉街78號前","startTime":1298,"endTime":1300,"lat":25.065902,"lon":121.515681,"garbageDay":[1,2,4,5,6],"recycleDay":[2,4,6]},{"address":"臺北市大同區昌吉街50巷口","startTime":1301,"endTime":1306,"lat":25.065887,"lon":121.516659,"garbageDay":[1,2,4,5,6],"recycleDay":[2,4,6]},{"address":"臺北市大同區民權西路133巷口","startTime":1308,"endTime":1319,"lat":25.063029,"lon":121.517044,"garbageDay":[1,2,4,5,6],"recycleDay":[2,4,6]},{"address":"臺北市大同區民權西路187號前","startTime":1320,"endTime":1322,"lat":25.063072,"lon":121.515653,"garbageDay":[1,2,4,5,6],"recycleDay":[2,4,6]},{"address":"臺北市大同區重慶北路三段9巷口","startTime":1323,"endTime":1326,"lat":25.064406,"lon":121.513748,"garbageDay":[1,2,4,5,6],"recycleDay":[2,4,6]},{"address":"臺北市大同區重慶北路三段昌吉街口","startTime":1327,"endTime":1329,"lat":25.065968,"lon":121.513784,"garbageDay":[1,2,4,5,6],"recycleDay":[2,4,6]},{"address":"臺北市大同區重慶北路三段137巷口","startTime":1330,"endTime":1333,"lat":25.068103,"lon":121.513827,"garbageDay":[1,2,4,5,6],"recycleDay":[2,4,6]},{"address":"臺北市大同區重慶北路三段335巷口","startTime":1335,"endTime":1340,"lat":25.074587,"lon":121.51391,"garbageDay":[1,2,4,5,6],"recycleDay":[2,4,6]},{"address":"臺北市大同區民權西路144巷8號","startTime":980,"endTime":985,"lat":25.062252,"lon":121.515904,"garbageDay":[1,2,4,5,6],"recycleDay":[2,4,6]},{"address":"臺北市大同區錦西街120之1號、興城街口","startTime":990,"endTime":994,"lat":25.060095,"lon":121.516951,"garbageDay":[1,2,4,5,6],"recycleDay":[2,4,6]},{"address":"臺北市大同區承德路二段134號（臨停）","startTime":995,"endTime":996,"lat":25.059473,"lon":121.518091,"garbageDay":[1,2,4,5,6],"recycleDay":[2,4,6]},{"address":"臺北市大同區承德路二段106號萬全街口","startTime":997,"endTime":1002,"lat":25.05854284,"lon":121.5180449,"garbageDay":[1,2,4,5,6],"recycleDay":[2,4,6]},{"address":"臺北市大同區承德路二段30號","startTime":1003,"endTime":1007,"lat":25.05569821,"lon":121.5180208,"garbageDay":[1,2,4,5,6],"recycleDay":[2,4,6]},{"address":"臺北市大同區承德路二段3號(建成公園)","startTime":1009,"endTime":1014,"lat":25.053793,"lon":121.517991,"garbageDay":[1,2,4,5,6],"recycleDay":[2,4,6]},{"address":"臺北市大同區承德路二段39號","startTime":1015,"endTime":1019,"lat":25.055014,"lon":121.518311,"garbageDay":[1,2,4,5,6],"recycleDay":[2,4,6]},{"address":"臺北市大同區承德路二段77號","startTime":1020,"endTime":1023,"lat":25.055858,"lon":121.518292,"garbageDay":[1,2,4,5,6],"recycleDay":[2,4,6]},{"address":"臺北市大同區承德路二段97號","startTime":1024,"endTime":1026,"lat":25.056463,"lon":121.518288,"garbageDay":[1,2,4,5,6],"recycleDay":[2,4,6]},{"address":"臺北市大同區承德路二段131號","startTime":1027,"endTime":1029,"lat":25.057149,"lon":121.5183,"garbageDay":[1,2,4,5,6],"recycleDay":[2,4,6]},{"address":"臺北市大同區承德路二段143號前","startTime":1030,"endTime":1034,"lat":25.05788437,"lon":121.5183702,"garbageDay":[1,2,4,5,6],"recycleDay":[2,4,6]},{"address":"臺北市大同區民生西路63號","startTime":1150,"endTime":1155,"lat":25.057669,"lon":121.520144,"garbageDay":[1,2,4,5,6],"recycleDay":[2,4,6]},{"address":"臺北市大同區萬全街5號","startTime":1156,"endTime":1160,"lat":25.05935,"lon":121.520018,"garbageDay":[1,2,4,5,6],"recycleDay":[2,4,6]},{"address":"臺北市大同區萬全街3巷16號之1","startTime":1161,"endTime":1163,"lat":25.059983,"lon":121.519935,"garbageDay":[1,2,4,5,6],"recycleDay":[2,4,6]},{"address":"臺北市大同區錦西街52巷13號","startTime":1164,"endTime":1165,"lat":25.060258,"lon":121.519908,"garbageDay":[1,2,4,5,6],"recycleDay":[2,4,6]},{"address":"臺北市大同區民權西路144巷19弄、雙連國小後","startTime":1169,"endTime":1175,"lat":25.061635,"lon":121.515928,"garbageDay":[1,2,4,5,6],"recycleDay":[2,4,6]},{"address":"臺北市大同區錦西街53巷口","startTime":1176,"endTime":1180,"lat":25.059836,"lon":121.51585,"garbageDay":[1,2,4,5,6],"recycleDay":[2,4,6]},{"address":"臺北市大同區保安街1之4號財福大樓","startTime":1181,"endTime":1185,"lat":25.059344,"lon":121.514163,"garbageDay":[1,2,4,5,6],"recycleDay":[2,4,6]},{"address":"臺北市大同區重慶北路二段189號","startTime":1186,"endTime":1188,"lat":25.059951,"lon":121.513678,"garbageDay":[1,2,4,5,6],"recycleDay":[2,4,6]},{"address":"臺北市大同區寧夏路161、163號間對面","startTime":1189,"endTime":1195,"lat":25.061297,"lon":121.514229,"garbageDay":[1,2,4,5,6],"recycleDay":[2,4,6]},{"address":"臺北市大同區民權西路190號、蘭州街44號口","startTime":1196,"endTime":1198,"lat":25.062636,"lon":121.514616,"garbageDay":[1,2,4,5,6],"recycleDay":[2,4,6]},{"address":"臺北市大同區民權西路120號","startTime":1199,"endTime":1203,"lat":25.062812,"lon":121.5169389,"garbageDay":[1,2,4,5,6],"recycleDay":[2,4,6]},{"address":"臺北市大同區重慶北路二段民生西路口","startTime":1212,"endTime":1216,"lat":25.057084,"lon":121.513876,"garbageDay":[1,2,4,5,6],"recycleDay":[2,4,6]},{"address":"臺北市大同區重慶北路二段歸綏街口","startTime":1217,"endTime":1220,"lat":25.058261,"lon":121.513772,"garbageDay":[1,2,4,5,6],"recycleDay":[2,4,6]},{"address":"臺北市大同區南京西路64巷口","startTime":1295,"endTime":1300,"lat":25.052889,"lon":121.518962,"garbageDay":[1,2,4,5,6],"recycleDay":[2,4,6]},{"address":"臺北市大同區南京西路32號捷運邊","startTime":1301,"endTime":1303,"lat":25.052591,"lon":121.520205,"garbageDay":[1,2,4,5,6],"recycleDay":[2,4,6]},{"address":"臺北市大同區長安西路當代藝術館","startTime":1306,"endTime":1310,"lat":25.050363,"lon":121.519497,"garbageDay":[1,2,4,5,6],"recycleDay":[2,4,6]},{"address":"臺北市大同區長安西路53巷口","startTime":1311,"endTime":1315,"lat":25.05089,"lon":121.517492,"garbageDay":[1,2,4,5,6],"recycleDay":[2,4,6]},{"address":"臺北市大同區承德路一段41巷口","startTime":1316,"endTime":1319,"lat":25.05133429,"lon":121.5172915,"garbageDay":[1,2,4,5,6],"recycleDay":[2,4,6]},{"address":"臺北市大同區承德路一段77巷口","startTime":1320,"endTime":1323,"lat":25.052336,"lon":121.517579,"garbageDay":[1,2,4,5,6],"recycleDay":[2,4,6]},{"address":"臺北市大同區承德路二段3號建成公園","startTime":1324,"endTime":1327,"lat":25.053778,"lon":121.517983,"garbageDay":[1,2,4,5,6],"recycleDay":[2,4,6]},{"address":"臺北市大同區承德路二段39號","startTime":1328,"endTime":1330,"lat":25.054629,"lon":121.518334,"garbageDay":[1,2,4,5,6],"recycleDay":[2,4,6]},{"address":"臺北市大同區太原路156之6號、平陽街口","startTime":1332,"endTime":1335,"lat":25.054983,"lon":121.516442,"garbageDay":[1,2,4,5,6],"recycleDay":[2,4,6]},{"address":"臺北市大同區南京西路107巷口","startTime":1336,"endTime":1338,"lat":25.053839,"lon":121.515659,"garbageDay":[1,2,4,5,6],"recycleDay":[2,4,6]},{"address":"臺北市大同區重慶北路二段59號","startTime":1339,"endTime":1342,"lat":25.055519,"lon":121.514174,"garbageDay":[1,2,4,5,6],"recycleDay":[2,4,6]},{"address":"臺北市大同區重慶北路二段73巷口","startTime":1343,"endTime":1347,"lat":25.056032,"lon":121.514048,"garbageDay":[1,2,4,5,6],"recycleDay":[2,4,6]},{"address":"臺北市大同區重慶北路二段190號","startTime":990,"endTime":992,"lat":25.0624351,"lon":121.5134115,"garbageDay":[1,2,4,5,6],"recycleDay":[2,4,6]},{"address":"臺北市大同區重慶北路二段保安街口","startTime":994,"endTime":995,"lat":25.05926828,"lon":121.5135634,"garbageDay":[1,2,4,5,6],"recycleDay":[2,4,6]},{"address":"臺北市大同區民生西路295號","startTime":997,"endTime":999,"lat":25.057102,"lon":121.513051,"garbageDay":[1,2,4,5,6],"recycleDay":[2,4,6]},{"address":"臺北市大同區民生西路335號","startTime":1000,"endTime":1002,"lat":25.057078,"lon":121.511411,"garbageDay":[1,2,4,5,6],"recycleDay":[2,4,6]},{"address":"臺北市大同區延平北路二段171號","startTime":1004,"endTime":1006,"lat":25.058519,"lon":121.511593,"garbageDay":[1,2,4,5,6],"recycleDay":[2,4,6]},{"address":"臺北市大同區延平北路二段225號","startTime":1007,"endTime":1009,"lat":25.060136,"lon":121.511522,"garbageDay":[1,2,4,5,6],"recycleDay":[2,4,6]},{"address":"臺北市大同區延平北路二段247號","startTime":1011,"endTime":1015,"lat":25.062444,"lon":121.511372,"garbageDay":[1,2,4,5,6],"recycleDay":[2,4,6]},{"address":"臺北市大同區環河北路二段、昌吉街口","startTime":1020,"endTime":1022,"lat":25.0658381,"lon":121.5089393,"garbageDay":[1,2,4,5,6],"recycleDay":[2,4,6]},{"address":"臺北市大同區環河北路二段123巷口","startTime":1023,"endTime":1024,"lat":25.066705,"lon":121.508974,"garbageDay":[1,2,4,5,6],"recycleDay":[2,4,6]},{"address":"臺北市大同區環河北路二段145巷口","startTime":1025,"endTime":1027,"lat":25.067231,"lon":121.508997,"garbageDay":[1,2,4,5,6],"recycleDay":[2,4,6]},{"address":"臺北市大同區環河北路二段161巷口","startTime":1028,"endTime":1030,"lat":25.06764571,"lon":121.5090573,"garbageDay":[1,2,4,5,6],"recycleDay":[2,4,6]},{"address":"臺北市大同區環河北路二段185巷口","startTime":1031,"endTime":1032,"lat":25.0682774,"lon":121.5091217,"garbageDay":[1,2,4,5,6],"recycleDay":[2,4,6]},{"address":"臺北市大同區民族西路322號","startTime":1033,"endTime":1035,"lat":25.068632,"lon":121.509975,"garbageDay":[1,2,4,5,6],"recycleDay":[2,4,6]},{"address":"臺北市大同區民族西路252巷口","startTime":1037,"endTime":1040,"lat":25.068594,"lon":121.512201,"garbageDay":[1,2,4,5,6],"recycleDay":[2,4,6]},{"address":"臺北市大同區重慶北路三段120巷45號","startTime":1042,"endTime":1045,"lat":25.0673129,"lon":121.51238,"garbageDay":[1,2,4,5,6],"recycleDay":[2,4,6]},{"address":"臺北市大同區環河北路二段7號","startTime":1160,"endTime":1162,"lat":25.063675,"lon":121.508953,"garbageDay":[1,2,4,5,6],"recycleDay":[2,4,6]},{"address":"臺北市大同區環河北路二段47號","startTime":1163,"endTime":1165,"lat":25.064835,"lon":121.508858,"garbageDay":[1,2,4,5,6],"recycleDay":[2,4,6]},{"address":"臺北市大同區昌吉街、迪化街口","startTime":1166,"endTime":1170,"lat":25.065776,"lon":121.509419,"garbageDay":[1,2,4,5,6],"recycleDay":[2,4,6]},{"address":"臺北市大同區昌吉街230號","startTime":1171,"endTime":1173,"lat":25.065874,"lon":121.510478,"garbageDay":[1,2,4,5,6],"recycleDay":[2,4,6]},{"address":"臺北市大同區昌吉街184號","startTime":1175,"endTime":1179,"lat":25.065859,"lon":121.512058,"garbageDay":[1,2,4,5,6],"recycleDay":[2,4,6]},{"address":"臺北市大同區昌吉街152號","startTime":1180,"endTime":1182,"lat":25.065831,"lon":121.51317,"garbageDay":[1,2,4,5,6],"recycleDay":[2,4,6]},{"address":"臺北市大同區延平北路四段155號之1","startTime":1190,"endTime":1193,"lat":25.072925,"lon":121.51136,"garbageDay":[1,2,4,5,6],"recycleDay":[2,4,6]},{"address":"臺北市大同區延平北路四段157號","startTime":1194,"endTime":1198,"lat":25.073077,"lon":121.511357,"garbageDay":[1,2,4,5,6],"recycleDay":[2,4,6]},{"address":"臺北市大同區延平北路四段191號","startTime":1199,"endTime":1204,"lat":25.073876,"lon":121.511614,"garbageDay":[1,2,4,5,6],"recycleDay":[2,4,6]},{"address":"臺北市大同區延平北路四段231號","startTime":1205,"endTime":1206,"lat":25.075548,"lon":121.511936,"garbageDay":[1,2,4,5,6],"recycleDay":[2,4,6]},{"address":"臺北市大同區臺北市延平北路四段243號","startTime":1207,"endTime":1208,"lat":25.076288,"lon":121.512151,"garbageDay":[1,2,4,5,6],"recycleDay":[2,4,6]},{"address":"臺北市大同區延平北路四段282巷口","startTime":1209,"endTime":1212,"lat":25.076938,"lon":121.511979,"garbageDay":[1,2,4,5,6],"recycleDay":[2,4,6]},{"address":"臺北市大同區敦煌路175巷","startTime":1213,"endTime":1218,"lat":25.0766463,"lon":121.5108524,"garbageDay":[1,2,4,5,6],"recycleDay":[2,4,6]},{"address":"臺北市大同區環河北路二段、敦煌路口合昌宮","startTime":1215,"endTime":1218,"lat":25.077282,"lon":121.509289,"garbageDay":[1,2,4,5,6],"recycleDay":[2,4,6]},{"address":"臺北市大同區酒泉街140號","startTime":1308,"endTime":1315,"lat":25.072056,"lon":121.512216,"garbageDay":[1,2,4,5,6],"recycleDay":[2,4,6]},{"address":"臺北市大同區民族西路225巷口","startTime":1317,"endTime":1323,"lat":25.068745,"lon":121.512105,"garbageDay":[1,2,4,5,6],"recycleDay":[2,4,6]},{"address":"臺北市大同區民族西路303巷口","startTime":1324,"endTime":1329,"lat":25.06872444,"lon":121.5101248,"garbageDay":[1,2,4,5,6],"recycleDay":[2,4,6]},{"address":"臺北市大同區環河北路二段205巷口","startTime":1330,"endTime":1331,"lat":25.06923464,"lon":121.5093094,"garbageDay":[1,2,4,5,6],"recycleDay":[2,4,6]},{"address":"臺北市大同區環河北路二段213巷口","startTime":1332,"endTime":1333,"lat":25.06972541,"lon":121.5093014,"garbageDay":[1,2,4,5,6],"recycleDay":[2,4,6]},{"address":"臺北市大同區環河北路二段261號","startTime":1334,"endTime":1335,"lat":25.070183,"lon":121.509418,"garbageDay":[1,2,4,5,6],"recycleDay":[2,4,6]},{"address":"臺北市大同區延平北路四段102巷75號","startTime":1336,"endTime":1338,"lat":25.07167,"lon":121.509339,"garbageDay":[1,2,4,5,6],"recycleDay":[2,4,6]},{"address":"臺北市大同區西寧北路民生西路口","startTime":960,"endTime":963,"lat":25.056757,"lon":121.508984,"garbageDay":[1,2,4,5,6],"recycleDay":[2,4,6]},{"address":"臺北市大同區西寧北路86巷口","startTime":964,"endTime":968,"lat":25.055164,"lon":121.508879,"garbageDay":[1,2,4,5,6],"recycleDay":[2,4,6]},{"address":"臺北市大同區西寧北路78號","startTime":969,"endTime":972,"lat":25.05438548,"lon":121.5086941,"garbageDay":[1,2,4,5,6],"recycleDay":[2,4,6]},{"address":"臺北市大同區西寧北路68號","startTime":973,"endTime":976,"lat":25.05366,"lon":121.508693,"garbageDay":[1,2,4,5,6],"recycleDay":[2,4,6]},{"address":"臺北市大同區南京西路434巷口","startTime":977,"endTime":980,"lat":25.05335364,"lon":121.5089721,"garbageDay":[1,2,4,5,6],"recycleDay":[2,4,6]},{"address":"臺北市大同區延平北路一段66巷口","startTime":984,"endTime":988,"lat":25.051506,"lon":121.511858,"garbageDay":[1,2,4,5,6],"recycleDay":[2,4,6]},{"address":"臺北市大同區延平北路一段22號","startTime":989,"endTime":992,"lat":25.050563,"lon":121.511947,"garbageDay":[1,2,4,5,6],"recycleDay":[2,4,6]},{"address":"臺北市大同區忠孝西路二段13號","startTime":996,"endTime":998,"lat":25.048328,"lon":121.509451,"garbageDay":[1,2,4,5,6],"recycleDay":[2,4,6]},{"address":"臺北市大同區西寧北路3巷口","startTime":1003,"endTime":1006,"lat":25.049776,"lon":121.507998,"garbageDay":[1,2,4,5,6],"recycleDay":[2,4,6]},{"address":"臺北市大同區延平北路二段61巷口","startTime":1009,"endTime":1013,"lat":25.05549919,"lon":121.5116897,"garbageDay":[1,2,4,5,6],"recycleDay":[2,4,6]},{"address":"臺北市大同區延平北路二段97號","startTime":1014,"endTime":1017,"lat":25.05656,"lon":121.511628,"garbageDay":[1,2,4,5,6],"recycleDay":[2,4,6]},{"address":"臺北市大同區涼州街安西街口","startTime":1020,"endTime":1025,"lat":25.060616,"lon":121.509973,"garbageDay":[1,2,4,5,6],"recycleDay":[2,4,6]},{"address":"臺北市大同區民生西路民樂街口","startTime":1130,"endTime":1133,"lat":25.056965,"lon":121.510715,"garbageDay":[1,2,4,5,6],"recycleDay":[2,4,6]},{"address":"臺北市大同區民生西路迪化街口","startTime":1134,"endTime":1137,"lat":25.056922,"lon":121.509672,"garbageDay":[1,2,4,5,6],"recycleDay":[2,4,6]},{"address":"臺北市大同區歸綏街忠和公園","startTime":1140,"endTime":1143,"lat":25.05802876,"lon":121.5087361,"garbageDay":[1,2,4,5,6],"recycleDay":[2,4,6]},{"address":"臺北市大同區歸綏街民樂街口","startTime":1145,"endTime":1149,"lat":25.058235,"lon":121.510504,"garbageDay":[1,2,4,5,6],"recycleDay":[2,4,6]},{"address":"臺北市大同區延平北路二段144巷口","startTime":1151,"endTime":1154,"lat":25.057541,"lon":121.511531,"garbageDay":[1,2,4,5,6],"recycleDay":[2,4,6]},{"address":"臺北市大同區延平北路二段60巷口","startTime":1156,"endTime":1159,"lat":25.055402,"lon":121.511629,"garbageDay":[1,2,4,5,6],"recycleDay":[2,4,6]},{"address":"臺北市大同區延平北路二段36巷口","startTime":1160,"endTime":1163,"lat":25.054874,"lon":121.511655,"garbageDay":[1,2,4,5,6],"recycleDay":[2,4,6]},{"address":"臺北市大同區延平北路甘谷街口","startTime":1165,"endTime":1168,"lat":25.05271,"lon":121.511813,"garbageDay":[1,2,4,5,6],"recycleDay":[2,4,6]},{"address":"臺北市大同區長安西路253號","startTime":1170,"endTime":1173,"lat":25.052089,"lon":121.511666,"garbageDay":[1,2,4,5,6],"recycleDay":[2,4,6]},{"address":"臺北市大同區長安西路285號","startTime":1174,"endTime":1177,"lat":25.052048,"lon":121.509657,"garbageDay":[1,2,4,5,6],"recycleDay":[2,4,6]},{"address":"臺北市大同區長安西路289號","startTime":1179,"endTime":1182,"lat":25.052047,"lon":121.509457,"garbageDay":[1,2,4,5,6],"recycleDay":[2,4,6]},{"address":"臺北市大同區長安西路貴德街口","startTime":1184,"endTime":1186,"lat":25.052223,"lon":121.507924,"garbageDay":[1,2,4,5,6],"recycleDay":[2,4,6]},{"address":"臺北市大同區環河北路一段83號","startTime":1187,"endTime":1189,"lat":25.052966,"lon":121.507412,"garbageDay":[1,2,4,5,6],"recycleDay":[2,4,6]},{"address":"臺北市大同區環河北路一段141號","startTime":1190,"endTime":1192,"lat":25.054394,"lon":121.507683,"garbageDay":[1,2,4,5,6],"recycleDay":[2,4,6]},{"address":"臺北市大同區環河北路一段迪化街224巷底","startTime":1194,"endTime":1197,"lat":25.05953,"lon":121.508493,"garbageDay":[1,2,4,5,6],"recycleDay":[2,4,6]},{"address":"臺北市大同區延平北路一段17號","startTime":1296,"endTime":1299,"lat":25.050174,"lon":121.511999,"garbageDay":[1,2,4,5,6],"recycleDay":[2,4,6]},{"address":"臺北市大同區延平北路一段69巷口","startTime":1300,"endTime":1303,"lat":25.05128551,"lon":121.5122805,"garbageDay":[1,2,4,5,6],"recycleDay":[2,4,6]},{"address":"臺北市大同區延平北路二段61巷口","startTime":1307,"endTime":1310,"lat":25.05550223,"lon":121.5116904,"garbageDay":[1,2,4,5,6],"recycleDay":[2,4,6]},{"address":"臺北市大同區保安街78巷口","startTime":1313,"endTime":1316,"lat":25.059042,"lon":121.512066,"garbageDay":[1,2,4,5,6],"recycleDay":[2,4,6]},{"address":"臺北市大同區保安街甘州街口","startTime":1317,"endTime":1319,"lat":25.05912,"lon":121.512768,"garbageDay":[1,2,4,5,6],"recycleDay":[2,4,6]},{"address":"臺北市大同區甘州街1號前","startTime":1323,"endTime":1325,"lat":25.058331,"lon":121.512988,"garbageDay":[1,2,4,5,6],"recycleDay":[2,4,6]},{"address":"臺北市大同區歸綏街209號","startTime":1326,"endTime":1329,"lat":25.058172,"lon":121.512001,"garbageDay":[1,2,4,5,6],"recycleDay":[2,4,6]},{"address":"臺北市大同區承德路二段188號前","startTime":980,"endTime":985,"lat":25.061628,"lon":121.518139,"garbageDay":[1,2,4,5,6],"recycleDay":[2,4,6]},{"address":"臺北市大同區寧夏路102號","startTime":987,"endTime":989,"lat":25.058826,"lon":121.514959,"garbageDay":[1,2,4,5,6],"recycleDay":[2,4,6]},{"address":"臺北市大同區寧夏路、歸綏街口","startTime":990,"endTime":994,"lat":25.058347,"lon":121.515107,"garbageDay":[1,2,4,5,6],"recycleDay":[2,4,6]},{"address":"臺北市大同區太原路118號","startTime":1003,"endTime":1008,"lat":25.05292,"lon":121.515875,"garbageDay":[1,2,4,5,6],"recycleDay":[2,4,6]},{"address":"臺北市大同區太原路76巷","startTime":1009,"endTime":1012,"lat":25.051875,"lon":121.515583,"garbageDay":[1,2,4,5,6],"recycleDay":[2,4,6]},{"address":"臺北市大同區長安西路174號","startTime":1013,"endTime":1017,"lat":25.051067,"lon":121.516145,"garbageDay":[1,2,4,5,6],"recycleDay":[2,4,6]},{"address":"臺北市大同區承德路一段32號","startTime":1018,"endTime":1020,"lat":25.050786,"lon":121.516837,"garbageDay":[1,2,4,5,6],"recycleDay":[2,4,6]},{"address":"臺北市大同區承德路、華陰街口北站邊","startTime":1021,"endTime":1023,"lat":25.050162,"lon":121.516658,"garbageDay":[1,2,4,5,6],"recycleDay":[2,4,6]},{"address":"臺北市大同區承德路一段21號","startTime":1028,"endTime":1030,"lat":25.050495,"lon":121.517078,"garbageDay":[1,2,4,5,6],"recycleDay":[2,4,6]},{"address":"臺北市大同區長安西路78巷口","startTime":1032,"endTime":1037,"lat":25.050342,"lon":121.519346,"garbageDay":[1,2,4,5,6],"recycleDay":[2,4,6]},{"address":"臺北市大同區華陰街47號","startTime":1042,"endTime":1044,"lat":25.049418,"lon":121.519023,"garbageDay":[1,2,4,5,6],"recycleDay":[2,4,6]},{"address":"臺北市大同區華陰街73號","startTime":1045,"endTime":1046,"lat":25.049664,"lon":121.518022,"garbageDay":[1,2,4,5,6],"recycleDay":[2,4,6]},{"address":"臺北市大同區華陰街95號","startTime":1047,"endTime":1048,"lat":25.049736,"lon":121.517539,"garbageDay":[1,2,4,5,6],"recycleDay":[2,4,6]},{"address":"臺北市大同區寧夏路11號","startTime":1052,"endTime":1054,"lat":25.054759,"lon":121.514935,"garbageDay":[1,2,4,5,6],"recycleDay":[2,4,6]},{"address":"臺北市大同區平陽街46號","startTime":1055,"endTime":1057,"lat":25.055445,"lon":121.515258,"garbageDay":[1,2,4,5,6],"recycleDay":[2,4,6]},{"address":"臺北市大同區民生西路95號、雙連街口","startTime":1155,"endTime":1159,"lat":25.057556,"lon":121.519285,"garbageDay":[1,2,4,5,6],"recycleDay":[2,4,6]},{"address":"臺北市大同區民生西路171號","startTime":1160,"endTime":1164,"lat":25.057296,"lon":121.517168,"garbageDay":[1,2,4,5,6],"recycleDay":[2,4,6]},{"address":"臺北市大同區太原路、五原路口","startTime":1165,"endTime":1169,"lat":25.056582,"lon":121.51706,"garbageDay":[1,2,4,5,6],"recycleDay":[2,4,6]},{"address":"臺北市大同區民生西路178巷","startTime":1170,"endTime":1172,"lat":25.057194,"lon":121.517491,"garbageDay":[1,2,4,5,6],"recycleDay":[2,4,6]},{"address":"臺北市大同區錦西街、雙連街口","startTime":1176,"endTime":1178,"lat":25.060188,"lon":121.518816,"garbageDay":[1,2,4,5,6],"recycleDay":[2,4,6]},{"address":"臺北市大同區停錦西街70號(臨停)","startTime":1179,"endTime":1179,"lat":25.060218,"lon":121.519253,"garbageDay":[1,2,4,5,6],"recycleDay":[2,4,6]},{"address":"臺北市大同區錦西街50號","startTime":1180,"endTime":1183,"lat":25.060265,"lon":121.519953,"garbageDay":[1,2,4,5,6],"recycleDay":[2,4,6]},{"address":"臺北市大同區承德路一段72號","startTime":1188,"endTime":1194,"lat":25.052316,"lon":121.517265,"garbageDay":[1,2,4,5,6],"recycleDay":[2,4,6]},{"address":"臺北市大同區太原路48巷口","startTime":1196,"endTime":1199,"lat":25.050797,"lon":121.515269,"garbageDay":[1,2,4,5,6],"recycleDay":[2,4,6]},{"address":"臺北市大同區太原路、華陰街口","startTime":1200,"endTime":1205,"lat":25.050264,"lon":121.515121,"garbageDay":[1,2,4,5,6],"recycleDay":[2,4,6]},{"address":"臺北市大同區重慶北路一段33號華陰街口","startTime":1207,"endTime":1212,"lat":25.050729,"lon":121.513782,"garbageDay":[1,2,4,5,6],"recycleDay":[2,4,6]},{"address":"臺北市大同區重慶北路一段85號","startTime":1213,"endTime":1218,"lat":25.052758,"lon":121.514222,"garbageDay":[1,2,4,5,6],"recycleDay":[2,4,6]},{"address":"臺北市大同區南京西路262巷口","startTime":1220,"endTime":1223,"lat":25.05374,"lon":121.515244,"garbageDay":[1,2,4,5,6],"recycleDay":[2,4,6]},{"address":"臺北市大同區承德路二段、萬全街口","startTime":1231,"endTime":1235,"lat":25.05843245,"lon":121.518268,"garbageDay":[1,2,4,5,6],"recycleDay":[2,4,6]},{"address":"臺北市大同區赤峰街19號","startTime":1245,"endTime":1249,"lat":25.053913,"lon":121.519338,"garbageDay":[1,2,4,5,6],"recycleDay":[2,4,6]},{"address":"臺北市大同區赤峰街39號之2","startTime":1250,"endTime":1253,"lat":25.05476,"lon":121.519664,"garbageDay":[1,2,4,5,6],"recycleDay":[2,4,6]},{"address":"臺北市大同區赤峰街49巷口","startTime":1254,"endTime":1256,"lat":25.055742,"lon":121.519663,"garbageDay":[1,2,4,5,6],"recycleDay":[2,4,6]},{"address":"臺北市大同區赤峰街53巷口","startTime":1257,"endTime":1260,"lat":25.056176,"lon":121.519688,"garbageDay":[1,2,4,5,6],"recycleDay":[2,4,6]},{"address":"臺北市大同區赤峰街71巷口","startTime":1261,"endTime":1263,"lat":25.056648,"lon":121.519715,"garbageDay":[1,2,4,5,6],"recycleDay":[2,4,6]},{"address":"臺北市大同區赤峰街77巷口","startTime":1264,"endTime":1267,"lat":25.057078,"lon":121.519737,"garbageDay":[1,2,4,5,6],"recycleDay":[2,4,6]},{"address":"臺北市大安區和平東路二段311巷50號","startTime":1070,"endTime":1080,"lat":25.02600609,"lon":121.5451624,"garbageDay":[1,2,4,5,6],"recycleDay":[2,4,6]},{"address":"臺北市大安區臥龍街131巷13弄1號","startTime":1090,"endTime":1105,"lat":25.01968771,"lon":121.551848,"garbageDay":[1,2,4,5,6],"recycleDay":[2,4,6]},{"address":"臺北市大安區樂業街70號","startTime":1113,"endTime":1120,"lat":25.02193762,"lon":121.5506702,"garbageDay":[1,2,4,5,6],"recycleDay":[2,4,6]},{"address":"臺北市大安區樂業街118巷1號","startTime":1122,"endTime":1135,"lat":25.02082276,"lon":121.552085,"garbageDay":[1,2,4,5,6],"recycleDay":[2,4,6]},{"address":"臺北市大安區和平東路三段228巷37號","startTime":1137,"endTime":1147,"lat":25.02089846,"lon":121.5535379,"garbageDay":[1,2,4,5,6],"recycleDay":[2,4,6]},{"address":"臺北市大安區復興南路二段151巷30弄1號","startTime":1220,"endTime":1230,"lat":25.02822461,"lon":121.545333,"garbageDay":[1,2,4,5,6],"recycleDay":[2,4,6]},{"address":"臺北市大安區和平東路三段308巷15弄12號","startTime":1240,"endTime":1260,"lat":25.01950909,"lon":121.5561968,"garbageDay":[1,2,4,5,6],"recycleDay":[2,4,6]},{"address":"臺北市大安區臥龍街211號","startTime":1264,"endTime":1268,"lat":25.01831945,"lon":121.5536675,"garbageDay":[1,2,4,5,6],"recycleDay":[2,4,6]},{"address":"臺北市大安區臥龍街199號","startTime":1269,"endTime":1273,"lat":25.01795765,"lon":121.5527754,"garbageDay":[1,2,4,5,6],"recycleDay":[2,4,6]},{"address":"臺北市大安區臥龍街131巷1號(新增)","startTime":1274,"endTime":1279,"lat":25.01873172,"lon":121.5504476,"garbageDay":[1,2,4,5,6],"recycleDay":[2,4,6]},{"address":"臺北市大安區基隆路二段289號","startTime":1282,"endTime":1290,"lat":25.0215352,"lon":121.5494829,"garbageDay":[1,2,4,5,6],"recycleDay":[2,4,6]},{"address":"臺北市大安區基隆路二段211號","startTime":1292,"endTime":1300,"lat":25.02329413,"lon":121.551423,"garbageDay":[1,2,4,5,6],"recycleDay":[2,4,6]},{"address":"臺北市大安區富陽街172號(慈仁八村)","startTime":1305,"endTime":1310,"lat":25.01705592,"lon":121.557073,"garbageDay":[1,2,4,5,6],"recycleDay":[2,4,6]},{"address":"臺北市大安區臥龍街271號前","startTime":1315,"endTime":1335,"lat":25.01850386,"lon":121.5568983,"garbageDay":[1,2,4,5,6],"recycleDay":[2,4,6]},{"address":"臺北市大安區忠孝東路三段215號(臺北富邦銀行)前","startTime":1060,"endTime":1085,"lat":25.0418644,"lon":121.5396146,"garbageDay":[1,2,4,5,6],"recycleDay":[2,4,6]},{"address":"臺北市大安區新生南路一段163號前","startTime":1105,"endTime":1115,"lat":25.0342787,"lon":121.5329674,"garbageDay":[1,2,4,5,6],"recycleDay":[2,4,6]},{"address":"臺北市大安區新生南路一段155號前","startTime":1116,"endTime":1120,"lat":25.0350971,"lon":121.5329309,"garbageDay":[1,2,4,5,6],"recycleDay":[2,4,6]},{"address":"臺北市大安區新生南路一段143號前","startTime":1121,"endTime":1135,"lat":25.036073,"lon":121.533,"garbageDay":[1,2,4,5,6],"recycleDay":[2,4,6]},{"address":"臺北市大安區新生南路一段141號前","startTime":1136,"endTime":1145,"lat":25.036268,"lon":121.533008,"garbageDay":[1,2,4,5,6],"recycleDay":[2,4,6]},{"address":"臺北市大安區忠孝東路三段86號前","startTime":1225,"endTime":1230,"lat":25.041622,"lon":121.535896,"garbageDay":[1,2,4,5,6],"recycleDay":[2,4,6]},{"address":"臺北市大安區安東街40號前","startTime":1240,"endTime":1260,"lat":25.044646,"lon":121.542481,"garbageDay":[1,2,4,5,6],"recycleDay":[2,4,6]},{"address":"臺北市大安區復興南路一段132號前","startTime":1263,"endTime":1265,"lat":25.042893,"lon":121.543567,"garbageDay":[1,2,4,5,6],"recycleDay":[2,4,6]},{"address":"臺北市大安區忠孝東路三段287號","startTime":1268,"endTime":1275,"lat":25.041851,"lon":121.542881,"garbageDay":[1,2,4,5,6],"recycleDay":[2,4,6]},{"address":"臺北市大安區忠孝東路三段249號前","startTime":1276,"endTime":1284,"lat":25.041794,"lon":121.541434,"garbageDay":[1,2,4,5,6],"recycleDay":[2,4,6]},{"address":"臺北市大安區忠孝東路三段235號前","startTime":1285,"endTime":1290,"lat":25.041886,"lon":121.54059,"garbageDay":[1,2,4,5,6],"recycleDay":[2,4,6]},{"address":"臺北市大安區八德路二段1號前","startTime":1296,"endTime":1303,"lat":25.044938,"lon":121.533213,"garbageDay":[1,2,4,5,6],"recycleDay":[2,4,6]},{"address":"臺北市大安區八德路二段28號前","startTime":1304,"endTime":1315,"lat":25.044778,"lon":121.534542,"garbageDay":[1,2,4,5,6],"recycleDay":[2,4,6]},{"address":"臺北市大安區市民大道四段200號前","startTime":1020,"endTime":1025,"lat":25.044476,"lon":121.555713,"garbageDay":[1,2,4,5,6],"recycleDay":[2,4,6]},{"address":"臺北市大安區忠孝東路四段343號前","startTime":1030,"endTime":1035,"lat":25.041579,"lon":121.557469,"garbageDay":[1,2,4,5,6],"recycleDay":[2,4,6]},{"address":"臺北市大安區敦化南路一段160巷口","startTime":1045,"endTime":1055,"lat":25.043571,"lon":121.548635,"garbageDay":[1,2,4,5,6],"recycleDay":[2,4,6]},{"address":"臺北市大安區敦化南路一段160巷口","startTime":1145,"endTime":1165,"lat":25.04356966,"lon":121.548634,"garbageDay":[1,2,4,5,6],"recycleDay":[2,4,6]},{"address":"臺北市大安區延吉街131巷43號對面(第1次收集)","startTime":1175,"endTime":1185,"lat":25.04291139,"lon":121.5559093,"garbageDay":[1,2,4,5,6],"recycleDay":[2,4,6]},{"address":"臺北市大安區安和路一段33號前","startTime":1265,"endTime":1270,"lat":25.038737,"lon":121.55099,"garbageDay":[1,2,4,5,6],"recycleDay":[2,4,6]},{"address":"臺北市大安區安和路一段7號前","startTime":1272,"endTime":1275,"lat":25.039759,"lon":121.549743,"garbageDay":[1,2,4,5,6],"recycleDay":[2,4,6]},{"address":"臺北市大安區復興南路一段133號","startTime":1285,"endTime":1290,"lat":25.042813,"lon":121.544091,"garbageDay":[1,2,4,5,6],"recycleDay":[2,4,6]},{"address":"臺北市大安區光復南路96巷2號前","startTime":1300,"endTime":1305,"lat":25.043986,"lon":121.556694,"garbageDay":[1,2,4,5,6],"recycleDay":[2,4,6]},{"address":"臺北市大安區市民大道四段200號前(第2次收集)","startTime":1308,"endTime":1313,"lat":25.04447614,"lon":121.5557224,"garbageDay":[1,2,4,5,6],"recycleDay":[2,4,6]},{"address":"臺北市大安區和平東路一段39號旁","startTime":1070,"endTime":1078,"lat":25.027038,"lon":121.523851,"garbageDay":[1,2,4,5,6],"recycleDay":[2,4,6]},{"address":"臺北市大安區杭州南路二段91號旁","startTime":1080,"endTime":1087,"lat":25.028618,"lon":121.521829,"garbageDay":[1,2,4,5,6],"recycleDay":[2,4,6]},{"address":"臺北市大安區潮州街58號旁","startTime":1090,"endTime":1097,"lat":25.029267,"lon":121.523721,"garbageDay":[1,2,4,5,6],"recycleDay":[2,4,6]},{"address":"臺北市大安區潮州街102號旁","startTime":1098,"endTime":1105,"lat":25.0028975,"lon":121.525586,"garbageDay":[1,2,4,5,6],"recycleDay":[2,4,6]},{"address":"臺北市大安區金山南路二段145號","startTime":1107,"endTime":1120,"lat":25.02948272,"lon":121.5265678,"garbageDay":[1,2,4,5,6],"recycleDay":[2,4,6]},{"address":"臺北市大安區杭州南路二段63號旁","startTime":1200,"endTime":1205,"lat":25.030309,"lon":121.522183,"garbageDay":[1,2,4,5,6],"recycleDay":[2,4,6]},{"address":"臺北市大安區金華街48巷口","startTime":1207,"endTime":1214,"lat":25.030675,"lon":121.523268,"garbageDay":[1,2,4,5,6],"recycleDay":[2,4,6]},{"address":"臺北市大安區金華街86號前","startTime":1215,"endTime":1220,"lat":25.030414,"lon":121.524977,"garbageDay":[1,2,4,5,6],"recycleDay":[2,4,6]},{"address":"臺北市大安區杭州南路二段25號旁","startTime":1226,"endTime":1235,"lat":25.033907,"lon":121.523438,"garbageDay":[1,2,4,5,6],"recycleDay":[2,4,6]},{"address":"臺北市大安區信義路二段44巷20弄1號前","startTime":1237,"endTime":1240,"lat":25.033238,"lon":121.525527,"garbageDay":[1,2,4,5,6],"recycleDay":[2,4,6]},{"address":"臺北市大安區金華街146號前","startTime":1246,"endTime":1250,"lat":25.029772,"lon":121.5291321,"garbageDay":[1,2,4,5,6],"recycleDay":[2,4,6]},{"address":"臺北市大安區和平東路一段141巷與潮州街口","startTime":1315,"endTime":1320,"lat":25.02828518,"lon":121.5305337,"garbageDay":[1,2,4,5,6],"recycleDay":[2,4,6]},{"address":"臺北市大安區金山南路二段145號","startTime":1325,"endTime":1332,"lat":25.02947786,"lon":121.5265685,"garbageDay":[1,2,4,5,6],"recycleDay":[2,4,6]},{"address":"臺北市大安區杭州南路二段57號","startTime":1336,"endTime":1340,"lat":25.031594,"lon":121.522416,"garbageDay":[1,2,4,5,6],"recycleDay":[2,4,6]},{"address":"臺北市大安區信義路二段44巷口","startTime":1343,"endTime":1353,"lat":25.0345944,"lon":121.5257509,"garbageDay":[1,2,4,5,6],"recycleDay":[2,4,6]},{"address":"臺北市大安區金山南路二段12號","startTime":1355,"endTime":1365,"lat":25.03349186,"lon":121.527056,"garbageDay":[1,2,4,5,6],"recycleDay":[2,4,6]},{"address":"臺北市大安區金山南路二段154號","startTime":1368,"endTime":1375,"lat":25.02868,"lon":121.526223,"garbageDay":[1,2,4,5,6],"recycleDay":[2,4,6]},{"address":"臺北市大安區仁愛路三段29號前","startTime":1112,"endTime":1122,"lat":25.038505,"lon":121.534535,"garbageDay":[1,2,4,5,6],"recycleDay":[2,4,6]},{"address":"臺北市大安區濟南路三段48號前","startTime":1126,"endTime":1128,"lat":25.040075,"lon":121.535733,"garbageDay":[1,2,4,5,6],"recycleDay":[2,4,6]},{"address":"臺北市大安區建國南路一段173號前","startTime":1131,"endTime":1137,"lat":25.0408084,"lon":121.537729,"garbageDay":[1,2,4,5,6],"recycleDay":[2,4,6]},{"address":"臺北市大安區建國南路一段42號前","startTime":1140,"endTime":1146,"lat":25.044023,"lon":121.536222,"garbageDay":[1,2,4,5,6],"recycleDay":[2,4,6]},{"address":"臺北市大安區建國南路一段166號","startTime":1148,"endTime":1157,"lat":25.040901,"lon":121.536982,"garbageDay":[1,2,4,5,6],"recycleDay":[2,4,6]},{"address":"臺北市大安區建國南路一段260號前","startTime":1160,"endTime":1166,"lat":25.0371696,"lon":121.5374376,"garbageDay":[1,2,4,5,6],"recycleDay":[2,4,6]},{"address":"臺北市大安區建國南路一段316號前","startTime":1167,"endTime":1175,"lat":25.0352152,"lon":121.5375408,"garbageDay":[1,2,4,5,6],"recycleDay":[2,4,6]},{"address":"臺北市大安區建國南路一段336號前","startTime":1176,"endTime":1180,"lat":25.034652,"lon":121.537412,"garbageDay":[1,2,4,5,6],"recycleDay":[2,4,6]},{"address":"臺北市大安區建國南路一段299號前","startTime":1250,"endTime":1265,"lat":25.03546,"lon":121.538314,"garbageDay":[1,2,4,5,6],"recycleDay":[2,4,6]},{"address":"臺北市大安區建國南路一段283號前","startTime":1266,"endTime":1276,"lat":25.0362346,"lon":121.5382732,"garbageDay":[1,2,4,5,6],"recycleDay":[2,4,6]},{"address":"臺北市大安區仁愛路三段32號前","startTime":1278,"endTime":1281,"lat":25.037594,"lon":121.536823,"garbageDay":[1,2,4,5,6],"recycleDay":[2,4,6]},{"address":"臺北市大安區仁愛路三段26號前","startTime":1282,"endTime":1286,"lat":25.037565,"lon":121.535719,"garbageDay":[1,2,4,5,6],"recycleDay":[2,4,6]},{"address":"臺北市大安區信義路三段31巷16號（民榮公園旁）","startTime":1291,"endTime":1308,"lat":25.035187,"lon":121.534512,"garbageDay":[1,2,4,5,6],"recycleDay":[2,4,6]},{"address":"臺北市大安區信義路三段29號前","startTime":1310,"endTime":1317,"lat":25.033779,"lon":121.534631,"garbageDay":[1,2,4,5,6],"recycleDay":[2,4,6]},{"address":"臺北市大安區信義路三段75號","startTime":1318,"endTime":1330,"lat":25.033712,"lon":121.537142,"garbageDay":[1,2,4,5,6],"recycleDay":[2,4,6]},{"address":"臺北市大安區復興南路一段217號","startTime":1040,"endTime":1045,"lat":25.039137,"lon":121.544031,"garbageDay":[1,2,4,5,6],"recycleDay":[2,4,6]},{"address":"臺北市大安區復興南路一段179號前","startTime":1048,"endTime":1053,"lat":25.04072,"lon":121.544063,"garbageDay":[1,2,4,5,6],"recycleDay":[2,4,6]},{"address":"臺北市大安區忠孝東路四段76號前","startTime":1058,"endTime":1063,"lat":25.041391,"lon":121.545763,"garbageDay":[1,2,4,5,6],"recycleDay":[2,4,6]},{"address":"臺北市大安區忠孝東路四段122號前","startTime":1068,"endTime":1073,"lat":25.0414844,"lon":121.5473247,"garbageDay":[1,2,4,5,6],"recycleDay":[2,4,6]},{"address":"臺北市大安區光復南路348號前","startTime":1085,"endTime":1095,"lat":25.03812266,"lon":121.5574833,"garbageDay":[1,2,4,5,6],"recycleDay":[2,4,6]},{"address":"臺北市大安區忠孝東路四段301號前","startTime":1180,"endTime":1188,"lat":25.041621,"lon":121.555208,"garbageDay":[1,2,4,5,6],"recycleDay":[2,4,6]},{"address":"臺北市大安區忠孝東路四段285號前","startTime":1190,"endTime":1195,"lat":25.041674,"lon":121.554149,"garbageDay":[1,2,4,5,6],"recycleDay":[2,4,6]},{"address":"臺北市大安區敦化南路一段161巷77號前","startTime":1202,"endTime":1207,"lat":25.0435136,"lon":121.5519806,"garbageDay":[1,2,4,5,6],"recycleDay":[2,4,6]},{"address":"臺北市大安區敦化南路一段161巷43號前","startTime":1210,"endTime":1215,"lat":25.043615,"lon":121.55116,"garbageDay":[1,2,4,5,6],"recycleDay":[2,4,6]},{"address":"臺北市大安區敦化南路一段161巷7號","startTime":1220,"endTime":1225,"lat":25.043669,"lon":121.549753,"garbageDay":[1,2,4,5,6],"recycleDay":[2,4,6]},{"address":"臺北市大安區延吉街131巷43號對面(第2次收集）","startTime":1300,"endTime":1305,"lat":25.04290896,"lon":121.555902,"garbageDay":[1,2,4,5,6],"recycleDay":[2,4,6]},{"address":"臺北市大安區忠孝東路四段223巷10弄1-6號","startTime":1310,"endTime":1315,"lat":25.04223,"lon":121.553114,"garbageDay":[1,2,4,5,6],"recycleDay":[2,4,6]},{"address":"臺北市大安區敦化南路一段187巷48號","startTime":1318,"endTime":1322,"lat":25.042457,"lon":121.551637,"garbageDay":[1,2,4,5,6],"recycleDay":[2,4,6]},{"address":"臺北市大安區敦化南路一段187巷27號","startTime":1325,"endTime":1328,"lat":25.042691,"lon":121.550619,"garbageDay":[1,2,4,5,6],"recycleDay":[2,4,6]},{"address":"臺北市大安區敦化南路一段187巷15號","startTime":1330,"endTime":1332,"lat":25.042669,"lon":121.550008,"garbageDay":[1,2,4,5,6],"recycleDay":[2,4,6]},{"address":"臺北市大安區信義路四段74號前","startTime":1090,"endTime":1095,"lat":25.03319336,"lon":121.5470617,"garbageDay":[1,2,4,5,6],"recycleDay":[2,4,6]},{"address":"臺北市大安區四維路160巷2號旁","startTime":1110,"endTime":1116,"lat":25.02874467,"lon":121.5479923,"garbageDay":[1,2,4,5,6],"recycleDay":[2,4,6]},{"address":"臺北市大安區敦化南路二段62號旁","startTime":1125,"endTime":1130,"lat":25.02994218,"lon":121.5485254,"garbageDay":[1,2,4,5,6],"recycleDay":[2,4,6]},{"address":"臺北市大安區四維路與四維路154巷交叉口前","startTime":1131,"endTime":1140,"lat":25.03097053,"lon":121.5479694,"garbageDay":[1,2,4,5,6],"recycleDay":[2,4,6]},{"address":"臺北市大安區信義路三段140號旁(美國在台協會)","startTime":1155,"endTime":1160,"lat":25.0333627,"lon":121.5402361,"garbageDay":[1,2,4,5,6],"recycleDay":[2,4,6]},{"address":"臺北市大安區信義路三段168號","startTime":1161,"endTime":1168,"lat":25.0333022,"lon":121.5419266,"garbageDay":[1,2,4,5,6],"recycleDay":[2,4,6]},{"address":"臺北市大安區復興南路二段10號","startTime":1170,"endTime":1175,"lat":25.0327677,"lon":121.5435005,"garbageDay":[1,2,4,5,6],"recycleDay":[2,4,6]},{"address":"臺北市大安區復興南路二段80號前","startTime":1176,"endTime":1180,"lat":25.03102953,"lon":121.5434513,"garbageDay":[1,2,4,5,6],"recycleDay":[2,4,6]},{"address":"臺北市大安區大安路二段99號","startTime":1250,"endTime":1258,"lat":25.02935071,"lon":121.5460319,"garbageDay":[1,2,4,5,6],"recycleDay":[2,4,6]},{"address":"臺北市大安區大安路二段63號前","startTime":1260,"endTime":1275,"lat":25.03095606,"lon":121.5460798,"garbageDay":[1,2,4,5,6],"recycleDay":[2,4,6]},{"address":"臺北市大安區復興南路二段45號前","startTime":1276,"endTime":1283,"lat":25.0313298,"lon":121.543637,"garbageDay":[1,2,4,5,6],"recycleDay":[2,4,6]},{"address":"臺北市大安區復興南路二段13號前","startTime":1284,"endTime":1290,"lat":25.03257459,"lon":121.5436714,"garbageDay":[1,2,4,5,6],"recycleDay":[2,4,6]},{"address":"臺北市大安區信義路四段60號前(信維市場)","startTime":1292,"endTime":1305,"lat":25.03313406,"lon":121.5458379,"garbageDay":[1,2,4,5,6],"recycleDay":[2,4,6]},{"address":"臺北市大安區大安路一段205號前","startTime":1312,"endTime":1324,"lat":25.03532805,"lon":121.5460184,"garbageDay":[1,2,4,5,6],"recycleDay":[2,4,6]},{"address":"臺北市大安區大安路一段177號旁（仁愛公園）","startTime":1325,"endTime":1335,"lat":25.03681234,"lon":121.5459998,"garbageDay":[1,2,4,5,6],"recycleDay":[2,4,6]},{"address":"臺北市大安區和平東路一段178號","startTime":1075,"endTime":1088,"lat":25.0264552,"lon":121.529342,"garbageDay":[1,2,4,5,6],"recycleDay":[2,4,6]},{"address":"臺北市大安區和平東路一段212號","startTime":1090,"endTime":1100,"lat":25.02625,"lon":121.531643,"garbageDay":[1,2,4,5,6],"recycleDay":[2,4,6]},{"address":"臺北市大安區和平東路一段266號","startTime":1102,"endTime":1110,"lat":25.026088,"lon":121.533668,"garbageDay":[1,2,4,5,6],"recycleDay":[2,4,6]},{"address":"臺北市大安區新生南路三段16-1號","startTime":1114,"endTime":1120,"lat":25.024484,"lon":121.5346186,"garbageDay":[1,2,4,5,6],"recycleDay":[2,4,6]},{"address":"臺北市大安區泰順街38之1號","startTime":1125,"endTime":1145,"lat":25.02481,"lon":121.53437,"garbageDay":[1,2,4,5,6],"recycleDay":[2,4,6]},{"address":"臺北市大安區辛亥路一段137號前","startTime":1225,"endTime":1230,"lat":25.022472,"lon":121.532492,"garbageDay":[1,2,4,5,6],"recycleDay":[2,4,6]},{"address":"臺北市大安區羅斯福路三段105號","startTime":1235,"endTime":1243,"lat":25.022426,"lon":121.526353,"garbageDay":[1,2,4,5,6],"recycleDay":[2,4,6]},{"address":"臺北市大安區羅斯福路三段19號","startTime":1245,"endTime":1255,"lat":25.023799,"lon":121.524754,"garbageDay":[1,2,4,5,6],"recycleDay":[2,4,6]},{"address":"臺北市大安區羅斯福路二段79號前","startTime":1257,"endTime":1265,"lat":25.025839,"lon":121.523469,"garbageDay":[1,2,4,5,6],"recycleDay":[2,4,6]},{"address":"臺北市大安區和平東路一段14號前","startTime":1268,"endTime":1273,"lat":25.026938,"lon":121.523418,"garbageDay":[1,2,4,5,6],"recycleDay":[2,4,6]},{"address":"臺北市大安區和平東路一段104巷口","startTime":1275,"endTime":1280,"lat":25.026812,"lon":121.525015,"garbageDay":[1,2,4,5,6],"recycleDay":[2,4,6]},{"address":"臺北市大安區師大路71號對面","startTime":1358,"endTime":1385,"lat":25.023649,"lon":121.528494,"garbageDay":[1,2,4,5,6],"recycleDay":[2,4,6]},{"address":"臺北市大安區敦化南路一段303之1號前","startTime":1080,"endTime":1090,"lat":25.035264,"lon":121.549047,"garbageDay":[1,2,4,5,6],"recycleDay":[2,4,6]},{"address":"臺北市大安區敦化南路一段263號前","startTime":1090,"endTime":1095,"lat":25.03654983,"lon":121.5491492,"garbageDay":[1,2,4,5,6],"recycleDay":[2,4,6]},{"address":"臺北市大安區仁愛路四段232號前","startTime":1095,"endTime":1100,"lat":25.037565,"lon":121.552244,"garbageDay":[1,2,4,5,6],"recycleDay":[2,4,6]},{"address":"臺北市大安區仁愛路四段378號前","startTime":1100,"endTime":1105,"lat":25.0375166,"lon":121.5558699,"garbageDay":[1,2,4,5,6],"recycleDay":[2,4,6]},{"address":"臺北市大安區仁愛路四段410號前","startTime":1105,"endTime":1110,"lat":25.03749108,"lon":121.5570366,"garbageDay":[1,2,4,5,6],"recycleDay":[2,4,6]},{"address":"臺北市大安區信義路四段165號前","startTime":1200,"endTime":1205,"lat":25.03335001,"lon":121.5506476,"garbageDay":[1,2,4,5,6],"recycleDay":[2,4,6]},{"address":"臺北市大安區信義路四段203號前","startTime":1205,"endTime":1215,"lat":25.033317,"lon":121.551615,"garbageDay":[1,2,4,5,6],"recycleDay":[2,4,6]},{"address":"臺北市大安區信義路四段225號前","startTime":1215,"endTime":1220,"lat":25.033256,"lon":121.552563,"garbageDay":[1,2,4,5,6],"recycleDay":[2,4,6]},{"address":"臺北市大安區信義路四段307號前","startTime":1220,"endTime":1225,"lat":25.03323336,"lon":121.5557975,"garbageDay":[1,2,4,5,6],"recycleDay":[2,4,6]},{"address":"臺北市大安區延吉街256號前","startTime":1228,"endTime":1235,"lat":25.03417,"lon":121.556403,"garbageDay":[1,2,4,5,6],"recycleDay":[2,4,6]},{"address":"臺北市大安區延吉街241巷2弄17號光信公園前","startTime":1235,"endTime":1238,"lat":25.035659,"lon":121.555711,"garbageDay":[1,2,4,5,6],"recycleDay":[2,4,6]},{"address":"臺北市大安區光復南路422號前","startTime":1240,"endTime":1250,"lat":25.0364256,"lon":121.5574008,"garbageDay":[1,2,4,5,6],"recycleDay":[2,4,6]},{"address":"臺北市大安區安和路二段225號前","startTime":1335,"endTime":1340,"lat":25.02544722,"lon":121.5503695,"garbageDay":[1,2,4,5,6],"recycleDay":[2,4,6]},{"address":"臺北市大安區通化街167號前","startTime":1350,"endTime":1365,"lat":25.028297,"lon":121.553852,"garbageDay":[1,2,4,5,6],"recycleDay":[2,4,6]},{"address":"臺北市大安區通化街17-5號前","startTime":1365,"endTime":1375,"lat":25.031834,"lon":121.554285,"garbageDay":[1,2,4,5,6],"recycleDay":[2,4,6]},{"address":"臺北市大安區信義路四段186巷與文昌街口","startTime":1020,"endTime":1025,"lat":25.032646,"lon":121.551568,"garbageDay":[1,2,4,5,6],"recycleDay":[2,4,6]},{"address":"臺北市大安區安和路二段21號前","startTime":1025,"endTime":1030,"lat":25.032146,"lon":121.552558,"garbageDay":[1,2,4,5,6],"recycleDay":[2,4,6]},{"address":"臺北市大安區信義路四段374號加油站前","startTime":1030,"endTime":1035,"lat":25.0330039,"lon":121.5555477,"garbageDay":[1,2,4,5,6],"recycleDay":[2,4,6]},{"address":"臺北市大安區光復南路606號","startTime":1035,"endTime":1040,"lat":25.03272356,"lon":121.557271,"garbageDay":[1,2,4,5,6],"recycleDay":[2,4,6]},{"address":"臺北市大安區樂利路89號前","startTime":1140,"endTime":1145,"lat":25.0257228,"lon":121.5521795,"garbageDay":[1,2,4,5,6],"recycleDay":[2,4,6]},{"address":"臺北市大安區通化街167號前","startTime":1145,"endTime":1175,"lat":25.028334,"lon":121.553867,"garbageDay":[1,2,4,5,6],"recycleDay":[2,4,6]},{"address":"臺北市安和路2段69巷2號","startTime":1185,"endTime":1190,"lat":25.03184025,"lon":121.5540512,"garbageDay":[1,2,4,5,6],"recycleDay":[2,4,6]},{"address":"臺北市大安區安和路一段104號前","startTime":1260,"endTime":1265,"lat":25.034158,"lon":121.552268,"garbageDay":[1,2,4,5,6],"recycleDay":[2,4,6]},{"address":"臺北市大安區安和路二段12號前","startTime":1265,"endTime":1270,"lat":25.032457,"lon":121.552252,"garbageDay":[1,2,4,5,6],"recycleDay":[2,4,6]},{"address":"臺北市大安區安和路二段52號前","startTime":1270,"endTime":1275,"lat":25.031078,"lon":121.552209,"garbageDay":[1,2,4,5,6],"recycleDay":[2,4,6]},{"address":"臺北市大安區安和路二段92號前","startTime":1275,"endTime":1300,"lat":25.029049,"lon":121.550511,"garbageDay":[1,2,4,5,6],"recycleDay":[2,4,6]},{"address":"臺北市大安區安和路二段186號前","startTime":1300,"endTime":1305,"lat":25.024924,"lon":121.550077,"garbageDay":[1,2,4,5,6],"recycleDay":[2,4,6]},{"address":"臺北市安和路2段69巷2號","startTime":1310,"endTime":1315,"lat":25.03184025,"lon":121.55407,"garbageDay":[1,2,4,5,6],"recycleDay":[2,4,6]},{"address":"臺北市大安區瑞安街75號前（安東市場）","startTime":1020,"endTime":1025,"lat":25.02849348,"lon":121.5411621,"garbageDay":[1,2,4,5,6],"recycleDay":[2,4,6]},{"address":"臺北市大安區復興南路二段148號前","startTime":1026,"endTime":1029,"lat":25.02838486,"lon":121.5433512,"garbageDay":[1,2,4,5,6],"recycleDay":[2,4,6]},{"address":"臺北市大安區復興南路二段111巷1號前","startTime":1031,"endTime":1036,"lat":25.03035782,"lon":121.5436139,"garbageDay":[1,2,4,5,6],"recycleDay":[2,4,6]},